,상가업소번호,상호명,지점명,상권업종대분류코드,상권업종대분류명,상권업종중분류코드,상권업종중분류명,상권업종소분류코드,상권업종소분류명,표준산업분류코드,표준산업분류명,시도코드,시도명,시군구코드,시군구명,행정동코드,행정동명,법정동코드,법정동명,지번코드,대지구분코드,대지구분명,지번본번지,지번부번지,지번주소,도로명코드,도로명,건물본번지,건물부번지,건물관리번호,건물명,도로명주소,구우편번호,신우편번호,동정보,층정보,호정보,경도,위도
13,MA010120220805431585,봄동떡방,,I2,음식,I210,기타 간이,I21002,떡/한과,C10711,떡류 제조업,26,부산광역시,26170,동구,26170570,수정2동,2617010200,수정동,2617010200102800001,1,대지,280,1.0,부산광역시 동구 수정동 280-1,261704181436,부산광역시 동구 중앙대로361번길,40,,2617010200102800001002191,,부산광역시 동구 중앙대로361번길 40,601812,48781,,1,,129.046162070694,35.1291810952931
26,MA010120220805433921,새마을상회,,G2,소매,G204,종합 소매,G20404,슈퍼마켓,G47129,기타 음ㆍ식료품 위주 종합 소매업,26,부산광역시,26170,동구,26170510,초량1동,2617010100,초량동,2617010100109940262,1,대지,994,262.0,부산광역시 동구 초량동 994-262,261704006006,부산광역시 동구 영초길,179,1.0,2617010100109940262005039,,부산광역시 동구 영초길 179-1,601830,48808,,,,129.035602471422,35.1166882467397
37,MA010120220805433370,선진축산정육시장통,,G2,소매,G205,식료품 소매,G20503,정육점,G47212,육류 소매업,26,부산광역시,26380,사하구,26380550,당리동,2638010200,당리동,2638010200103170017,1,대지,317,17.0,부산광역시 사하구 당리동 317-17,263803134017,부산광역시 사하구 승학로,64,,2638010200103170017028799,,부산광역시 사하구 승학로 64,604828,49328,,,,128.9751572908,35.1048493239028
71,MA010120220805436912,쵸리네,,G2,소매,G205,식료품 소매,G20505,수산물 소매업,G47214,"신선, 냉동 및 기타 수산물 소매업",26,부산광역시,26500,수영구,26500800,민락동,2650010300,민락동,2650010300101130051,1,대지,113,51.0,부산광역시 수영구 민락동 113-51,265004214077,부산광역시 수영구 광안해변로312번길,60,,2650010300101130051000001,민락어민활어직판장,부산광역시 수영구 광안해변로312번길 60,613827,48281,,,,129.127886619068,35.1542367953902
113,MA010120220805441355,픽미픽미아이스,,I2,음식,I201,한식,I20101,백반/한정식,G47216,"빵류, 과자류 및 당류 소매업",26,부산광역시,26530,사상구,26530660,주례2동,2653010600,주례동,2653010600100920078,1,대지,92,78.0,부산광역시 사상구 주례동 92-78,265304217022,부산광역시 사상구 가야대로330번길,90,,2653010600100920078032177,이모네집,부산광역시 사상구 가야대로330번길 90,617012,47008,,1,,129.009205740299,35.1467562737417
145,MA010120220805444678,본힐링하우스,,G2,소매,G205,식료품 소매,G20508,건강보조식품 소매업,G47217,건강 보조식품 소매업,26,부산광역시,26500,수영구,26500800,민락동,2650010300,민락동,2650010300101760027,1,대지,176,27.0,부산광역시 수영구 민락동 176-27,265004214069,부산광역시 수영구 광안해변로277번길,11,,2650010300101760027016100,,부산광역시 수영구 광안해변로277번길 11,613828,48286,,1,,129.124065042122,35.1564716932005
169,MA010120220805447757,애가타지,,G2,소매,G204,종합 소매,G20404,슈퍼마켓,G47216,"빵류, 과자류 및 당류 소매업",26,부산광역시,26200,영도구,26200540,영선1동,2620010900,영선동2가,2620010900100580003,1,대지,58,3.0,부산광역시 영도구 영선동2가 58-3,262002128001,부산광역시 영도구 영선대로,79,,2620010900100580003000001,,부산광역시 영도구 영선대로 79,606042,49056,,,,129.041941209199,35.088077511778
184,MA010120220805447211,메가탑농수산,,G2,소매,G205,식료품 소매,G20506,채소/과일 소매업,G47215,"채소, 과실 및 뿌리작물 소매업",26,부산광역시,26440,강서구,26440535,명지1동,2644010400,명지동,2644010400135980005,1,대지,3598,5.0,부산광역시 강서구 명지동 3598-5,264403350851,부산광역시 강서구 명지국제1로,56,3.0,2644010400135980005000001,,부산광역시 강서구 명지국제1로 56-3,618200,46726,,,,128.906685582678,35.0935812211956
243,MA010120220805454413,더마트,,G2,소매,G204,종합 소매,G20404,슈퍼마켓,G47121,슈퍼마켓,26,부산광역시,26260,동래구,26260570,온천3동,2626010800,온천동,2626010800112920000,1,대지,1292,,부산광역시 동래구 온천동 1292,262604190338,부산광역시 동래구 아시아드대로255번길,19,,2626010800112920000011343,,부산광역시 동래구 아시아드대로255번길 19,607839,47846,,,,129.067758758572,35.206728617326
266,MA010120220805455052,이롬황성주생식국제신도시1지점,,G2,소매,G205,식료품 소매,G20508,건강보조식품 소매업,G47217,건강 보조식품 소매업,26,부산광역시,26440,강서구,26440535,명지1동,2644010400,명지동,2644010400133580005,1,대지,3358,5.0,부산광역시 강서구 명지동 3358-5,264403350868,부산광역시 강서구 명지국제8로,265,,2644010400133580005000001,SM빌딩,부산광역시 강서구 명지국제8로 265,618200,46773,,7,,128.921839838523,35.0982174084622
271,MA010120220805455432,띵땅상사,,G2,소매,G205,식료품 소매,G20509,반찬/식료품 소매업,G47219,기타 식료품 소매업,26,부산광역시,26290,남구,26290530,대연3동,2629010600,대연동,2629010600105100010,1,대지,510,10.0,부산광역시 남구 대연동 510-10,262904193208,부산광역시 남구 용소로40번길,22,1.0,2629010600105100010003357,,부산광역시 남구 용소로40번길 22-1,608810,48498,,1,,129.099813556224,35.1339702310212
280,MA010120220805458403,토끼와거북이,,G2,소매,G205,식료품 소매,G20509,반찬/식료품 소매업,G47218,조리 반찬류 소매업,26,부산광역시,26380,사하구,26380562,하단2동,2638010300,하단동,2638010300104870006,1,대지,487,6.0,부산광역시 사하구 하단동 487-6,263804202156,부산광역시 사하구 낙동대로535번길,28,,2638010300104870006023644,에덴종합시장,부산광역시 사하구 낙동대로535번길 28,604851,49307,,1,,128.962994308505,35.1114997870911
296,MA010120220805457168,태양수산,,G2,소매,G205,식료품 소매,G20505,수산물 소매업,G47214,"신선, 냉동 및 기타 수산물 소매업",26,부산광역시,26500,수영구,26500740,망미1동,2650010100,망미동,2650010100104310014,1,대지,431,14.0,부산광역시 수영구 망미동 431-14,265004214014,부산광역시 수영구 과정로55번길,7,,2650010100104310014009971,,부산광역시 수영구 과정로55번길 7,613822,48210,,,,129.106869932336,35.1761810757676
306,MA010120220805459996,진주식품,,G2,소매,G205,식료품 소매,G20509,반찬/식료품 소매업,G47218,조리 반찬류 소매업,26,부산광역시,26500,수영구,26500740,망미1동,2650010100,망미동,2650010100104320004,1,대지,432,4.0,부산광역시 수영구 망미동 432-4,265004214014,부산광역시 수영구 과정로55번길,8,,2650010100104320004015557,,부산광역시 수영구 과정로55번길 8,613822,48204,,1,,129.106850177611,35.176343505547
312,MA010120220805460059,남북유통,,G2,소매,G204,종합 소매,G20404,슈퍼마켓,G47129,기타 음ㆍ식료품 위주 종합 소매업,26,부산광역시,26230,부산진구,26230670,당감1동,2623010900,당감동,2623010900102520117,1,대지,252,117.0,부산광역시 부산진구 당감동 252-117,262304187130,부산광역시 부산진구 당감로10번길,7,,2623010900102520117045212,,부산광역시 부산진구 당감로10번길 7,614817,47189,,,,129.040203603108,35.1627643062008
313,MA010120220805459249,가나유통,,G2,소매,G205,식료품 소매,G20509,반찬/식료품 소매업,G47219,기타 식료품 소매업,26,부산광역시,26500,수영구,26500750,망미2동,2650010100,망미동,2650010100104110001,1,대지,411,1.0,부산광역시 수영구 망미동 411-1,265004214178,부산광역시 수영구 망미번영로55번길,112,,2650010100104110001012777,현대망미아파트,부산광역시 수영구 망미번영로55번길 112,613821,48218,,1,,129.108297815346,35.1770423619607
316,MA010120220805458656,종근당건강헬스벨스토리부산남항점,,G2,소매,G205,식료품 소매,G20508,건강보조식품 소매업,G47217,건강 보조식품 소매업,26,부산광역시,26200,영도구,26200530,남항동,2620010600,남항동2가,2620010600102470017,1,대지,247,17.0,부산광역시 영도구 남항동2가 247-17,262003128002,부산광역시 영도구 남항로,22,1.0,2620010600102470017009682,,부산광역시 영도구 남항로 22-1,606802,49055,,,,129.038940038261,35.0892300181415
318,MA010120220805458593,청명상회,,G2,소매,G204,종합 소매,G20404,슈퍼마켓,G47129,기타 음ㆍ식료품 위주 종합 소매업,26,부산광역시,26530,사상구,26530645,감전동,2653010500,감전동,2653010500101510019,1,대지,151,19.0,부산광역시 사상구 감전동 151-19,265304217316,부산광역시 사상구 새벽시장로56번길,37,,2653010500101510007009876,,부산광역시 사상구 새벽시장로56번길 37,617803,46989,,1,,128.979403629514,35.1535359800463
320,MA010120220805458860,봉아이스크림할인점좌동뜨란채점,,G2,소매,G204,종합 소매,G20404,슈퍼마켓,G47216,"빵류, 과자류 및 당류 소매업",26,부산광역시,26350,해운대구,26350553,좌3동,2635010700,좌동,2635010700112780001,1,대지,1278,1.0,부산광역시 해운대구 좌동 1278-1,263504199026,부산광역시 해운대구 대천로67번길,12,,2635010700112780001011037,,부산광역시 해운대구 대천로67번길 12,612852,48081,,,,129.169034758418,35.1735509118265
384,MA010120220805467071,당리정육점,,G2,소매,G205,식료품 소매,G20503,정육점,G47212,육류 소매업,26,부산광역시,26380,사하구,26380550,당리동,2638010200,당리동,2638010200101330001,1,대지,133,1.0,부산광역시 사하구 당리동 133-1,263803134025,부산광역시 사하구 제석로,62,,2638010200101330001008411,,부산광역시 사하구 제석로 62,604828,49323,,1,,128.975005976491,35.1059592725762
437,MA010120220805474253,메종송송,,G2,소매,G205,식료품 소매,G20509,반찬/식료품 소매업,G47219,기타 식료품 소매업,26,부산광역시,26470,연제구,26470620,거제2동,2647010100,거제동,2647010100111800017,1,대지,1180,17.0,부산광역시 연제구 거제동 1180-17,264704211246,부산광역시 연제구 아시아드대로22번길,13,,2647010100111800017023985,,부산광역시 연제구 아시아드대로22번길 13,611808,47526,,1,,129.070131081425,35.1874811214437
441,MA010120220805473593,와마트덕포점,,G2,소매,G204,종합 소매,G20404,슈퍼마켓,G47121,슈퍼마켓,26,부산광역시,26530,사상구,26530610,덕포2동,2653010300,덕포동,2653010300104030005,1,대지,403,5.0,부산광역시 사상구 덕포동 403-5,265303132023,부산광역시 사상구 사상로,331,,2653010300104030006000001,백송,부산광역시 사상구 사상로 331,617814,46946,,,,128.983803033055,35.1743586999452
449,MA010120220805473404,와미부,,G2,소매,G204,종합 소매,G20404,슈퍼마켓,G47121,슈퍼마켓,26,부산광역시,26350,해운대구,26350530,중1동,2635010600,중동,2635010600109570002,1,대지,957,2.0,부산광역시 해운대구 중동 957-2,263504199020,부산광역시 해운대구 달맞이길62번길,38,,2635010600109570002000001,삼환미포씨랜드,부산광역시 해운대구 달맞이길62번길 38,612846,48098,,3,,129.171212412397,35.1585219079261
452,MA010120220805472984,아리랑,,G2,소매,G204,종합 소매,G20404,슈퍼마켓,G47129,기타 음ㆍ식료품 위주 종합 소매업,26,부산광역시,26320,북구,26320510,구포1동,2632010500,구포동,2632010500105890033,1,대지,589,33.0,부산광역시 북구 구포동 589-33,263204196028,부산광역시 북구 구포시장3길,5,,2632010500105890033001798,,부산광역시 북구 구포시장3길 5,616801,46581,,,,129.003596014843,35.2082419304508
463,MA010120220805475017,오레시피사상점,,G2,소매,G205,식료품 소매,G20509,반찬/식료품 소매업,G47218,조리 반찬류 소매업,26,부산광역시,26530,사상구,26530620,괘법동,2653010400,괘법동,2653010400102710020,1,대지,271,20.0,부산광역시 사상구 괘법동 271-20,265303132023,부산광역시 사상구 사상로,232,5.0,2653010400102710020018027,,부산광역시 사상구 사상로 232-5,617806,46964,,1,,128.983359757802,35.1658080353611
525,MA010120220805482227,금정담뱃집,,G2,소매,G204,종합 소매,G20404,슈퍼마켓,G47129,기타 음ㆍ식료품 위주 종합 소매업,26,부산광역시,26410,금정구,26410700,금성동,2641011300,금성동,2641011300108900000,1,대지,890,,부산광역시 금정구 금성동 890,264104205016,부산광역시 금정구 공해1길,2,,2641011300108900000008584,사계절집,부산광역시 금정구 공해1길 2,609420,46238,,,,129.05623720314,35.2439486146311
544,MA010120220805484037,아삭김치,,G2,소매,G205,식료품 소매,G20506,채소/과일 소매업,G47215,"채소, 과실 및 뿌리작물 소매업",26,부산광역시,26500,수영구,26500740,망미1동,2650010100,망미동,2650010100104420034,1,대지,442,34.0,부산광역시 수영구 망미동 442-34,265004214153,부산광역시 수영구 망미배산로10번길,45,,2650010100104420034007280,,부산광역시 수영구 망미배산로10번길 45,613823,48210,,,,129.106691614938,35.1759844004967
597,MA010120220805487429,김천상회,,G2,소매,G205,식료품 소매,G20506,채소/과일 소매업,G47215,"채소, 과실 및 뿌리작물 소매업",26,부산광역시,26260,동래구,26260520,복산동,2626010500,복천동,2626010500102290028,1,대지,229,28.0,부산광역시 동래구 복천동 229-28,262604190097,부산광역시 동래구 동래시장길,14,,2626010500102290029016298,동래시장,부산광역시 동래구 동래시장길 14,607020,47810,,1,,129.085961867513,35.203826518793
599,MA010120220805487244,하신수산,,G2,소매,G205,식료품 소매,G20505,수산물 소매업,G47214,"신선, 냉동 및 기타 수산물 소매업",26,부산광역시,26110,중구,26110580,남포동,2611013900,남포동4가,2611013900100370001,1,대지,37,1.0,부산광역시 중구 남포동4가 37-1,261103125013,부산광역시 중구 자갈치해안로,52,,2611013700100370001004178,자갈치시장,부산광역시 중구 자갈치해안로 52,600044,48983,,1,,129.030600002535,35.0966476355156
659,MA010120220805491353,심봉사눈뜬오뎅,,G2,소매,G205,식료품 소매,G20509,반찬/식료품 소매업,G47219,기타 식료품 소매업,26,부산광역시,26320,북구,26320510,구포1동,2632010500,구포동,2632010500105890001,1,대지,589,1.0,부산광역시 북구 구포동 589-1,263204196034,부산광역시 북구 구포시장길,21,,2632010500105890001016407,,부산광역시 북구 구포시장길 21,616801,46581,,1,,129.003433620083,35.2084325683472
692,MA010120220805496351,금양인터내셔날롯데,,G2,소매,G206,음료 소매,G20602,주류 소매업,G47221,음료 소매업,26,부산광역시,26230,부산진구,26230520,부전2동,2623010300,부전동,2623010300105030015,1,대지,503,15.0,부산광역시 부산진구 부전동 503-15,262302006015,부산광역시 부산진구 가야대로,772,,2623010300105030015004104,롯데백화점부산본점,부산광역시 부산진구 가야대로 772,614732,47285,,,,129.056437700996,35.1568098468641
727,MA010120220805500090,크림현대가락타운점,,G2,소매,G204,종합 소매,G20404,슈퍼마켓,G47129,기타 음ㆍ식료품 위주 종합 소매업,26,부산광역시,26380,사하구,26380562,하단2동,2638010300,하단동,2638010300108850007,1,대지,885,7.0,부산광역시 사하구 하단동 885-7,263803134034,부산광역시 사하구 하신번영로,314,,2638010300108850007013303,,부산광역시 사하구 하신번영로 314,604853,49306,,1,,128.959103648267,35.1089976732861
735,MA010120220805499635,서원유통,,G2,소매,G204,종합 소매,G20404,슈퍼마켓,G47129,기타 음ㆍ식료품 위주 종합 소매업,26,부산광역시,26530,사상구,26530620,괘법동,2653010400,괘법동,2653010400102670005,1,대지,267,5.0,부산광역시 사상구 괘법동 267-5,265304217215,부산광역시 사상구 사상로250번길,36,,2653010400102670005015137,트라이사상직매장,부산광역시 사상구 사상로250번길 36,617806,46965,,,,128.984415069304,35.1668450862757
749,MA010120220805501417,노란호랭이,,G2,소매,G205,식료품 소매,G20506,채소/과일 소매업,G47215,"채소, 과실 및 뿌리작물 소매업",26,부산광역시,26230,부산진구,26230780,범천2동,2623010400,범천동,2623010400116390060,1,대지,1639,60.0,부산광역시 부산진구 범천동 1639-60,262303127030,부산광역시 부산진구 안창로,4,,2623010400116390060049285,,부산광역시 부산진구 안창로 4,614834,47376,,,,129.047939925461,35.1446246837724
777,MA010120220805503061,낙민동아이스크림할인점,,G2,소매,G204,종합 소매,G20404,슈퍼마켓,G47216,"빵류, 과자류 및 당류 소매업",26,부산광역시,26260,동래구,26260510,수민동,2626010400,낙민동,2626010400100840008,1,대지,84,8.0,부산광역시 동래구 낙민동 84-8,262603130015,부산광역시 동래구 안남로,23,,2626010400100840008017390,보림프라자,부산광역시 동래구 안남로 23,607801,47892,,,,129.094844082576,35.1946605937635
812,MA010120220805508812,도레미마트,,G2,소매,G204,종합 소매,G20404,슈퍼마켓,G47121,슈퍼마켓,26,부산광역시,26320,북구,26320572,만덕2동,2632010300,만덕동,2632010300108930007,1,대지,893,7.0,부산광역시 북구 만덕동 893-7,263204196142,부산광역시 북구 덕천로370번길,15,,2632010300108930007016409,,부산광역시 북구 덕천로370번길 15,616831,46609,,,,129.043943516853,35.2088832876926
816,MA010120220805507562,어부상회,,G2,소매,G205,식료품 소매,G20504,건어물/젓갈 소매업,G47213,건어물 및 젓갈류 소매업,26,부산광역시,26230,부산진구,26230670,당감1동,2623010900,당감동,2623010900102620026,1,대지,262,26.0,부산광역시 부산진구 당감동 262-26,262304187131,부산광역시 부산진구 당감로16번길,27,,2623010900102620026053311,,부산광역시 부산진구 당감로16번길 27,614817,47181,,,,129.041156784036,35.1634862466316
818,MA010120220805507439,나비수산,,G2,소매,G205,식료품 소매,G20504,건어물/젓갈 소매업,G47213,건어물 및 젓갈류 소매업,26,부산광역시,26710,기장군,26710250,기장읍,2671025028,기장읍,2671025028104020001,1,대지,402,1.0,부산광역시 기장군 기장읍 대변리 402-1,267103140057,부산광역시 기장군 기장읍 기장해안로,597,,2671025028104440051015667,대운낙지,부산광역시 기장군 기장읍 기장해안로 597,619904,46079,,,,129.229681839015,35.2249413152276
851,MA010120220805512787,통영물산,,G2,소매,G205,식료품 소매,G20504,건어물/젓갈 소매업,G47213,건어물 및 젓갈류 소매업,26,부산광역시,26440,강서구,26440510,대저1동,2644010100,대저1동,2644010100103850006,1,대지,385,6.0,부산광역시 강서구 대저1동 385-6,264404208067,부산광역시 강서구 공항로1309번길,80,12.0,2644010100103850006000001,,부산광역시 강서구 공항로1309번길 80-12,618803,46702,,,,128.984701874875,35.2161039616829
870,MA010120220805514439,초원식육점,,G2,소매,G205,식료품 소매,G20503,정육점,G47212,육류 소매업,26,부산광역시,26260,동래구,26260600,사직3동,2626010900,사직동,2626010900101390036,1,대지,139,36.0,부산광역시 동래구 사직동 139-36,262603130017,부산광역시 동래구 여고북로,144,,2626010900101390036002041,,부산광역시 동래구 여고북로 144,607813,47830,,,,129.072962475227,35.2015717675835
875,MA010120220805514669,장산떡집,,I2,음식,I210,기타 간이,I21002,떡/한과,C10711,떡류 제조업,26,부산광역시,26350,해운대구,26350570,반여1동,2635010300,반여동,2635010300108770003,1,대지,877,3.0,부산광역시 해운대구 반여동 877-3,263504199060,부산광역시 해운대구 반여로185번길,73,5.0,2635010300108770003009202,,부산광역시 해운대구 반여로185번길 73-5,612809,48034,,1,,129.124449514891,35.2083066069013
910,MA010120220805515414,김여사반찬에반하다,,G2,소매,G205,식료품 소매,G20509,반찬/식료품 소매업,G47218,조리 반찬류 소매업,26,부산광역시,26350,해운대구,26350552,좌2동,2635010700,좌동,2635010700114750002,1,대지,1475,2.0,부산광역시 해운대구 좌동 1475-2,263503133029,부산광역시 해운대구 양운로,53,,2635010700114750002000001,투모로우오피스텔,부산광역시 해운대구 양운로 53,612842,48104,,,,129.176440471374,35.167917707043
915,MA010120220805518459,대청미니,,G2,소매,G204,종합 소매,G20404,슈퍼마켓,G47129,기타 음ㆍ식료품 위주 종합 소매업,26,부산광역시,26110,중구,26110530,대청동,2611011900,대청동4가,2611011900100720165,1,대지,72,165.0,부산광역시 중구 대청동4가 72-165,261104175061,부산광역시 중구 대청북길17번길,22,,2611011900100720165002585,,부산광역시 중구 대청북길17번길 22,600800,48970,,2,,129.029798735592,35.1061912904457
916,MA010120220805518721,세븐일레븐부산동구동양점,,G2,소매,G204,종합 소매,G20405,편의점,G47129,기타 음ㆍ식료품 위주 종합 소매업,26,부산광역시,26170,동구,26170650,범일1동,2617010400,범일동,2617010400113360022,1,대지,1336,22.0,부산광역시 동구 범일동 1336-22,261703127039,부산광역시 동구 증산로,150,,2617010400113360022019619,,부산광역시 동구 증산로 150,601804,48721,,,,129.053258040909,35.1391792176836
929,MA010120220805517453,화명장터,,G2,소매,G205,식료품 소매,G20506,채소/과일 소매업,G47215,"채소, 과실 및 뿌리작물 소매업",26,부산광역시,26320,북구,26320543,화명3동,2632010200,화명동,2632010200122770005,1,대지,2277,5.0,부산광역시 북구 화명동 2277-5,263204196051,부산광역시 북구 금곡대로285번길,22,,2632010200122770005008595,월드타워,부산광역시 북구 금곡대로285번길 22,616852,46526,,1,,129.012341929739,35.2341921805954
941,MA010120220805519505,튀항,,G2,소매,G205,식료품 소매,G20506,채소/과일 소매업,G47215,"채소, 과실 및 뿌리작물 소매업",26,부산광역시,26530,사상구,26530610,덕포2동,2653010300,덕포동,2653010300104130019,1,대지,413,19.0,부산광역시 사상구 덕포동 413-19,265304217227,부산광역시 사상구 사상로310번길,45,,2653010300104130019023669,마산아구찜,부산광역시 사상구 사상로310번길 45,617815,46949,,,,128.986017215599,35.1722584694324
961,MA010120220805520889,픽미픽미,,G2,소매,G204,종합 소매,G20404,슈퍼마켓,G47216,"빵류, 과자류 및 당류 소매업",26,부산광역시,26380,사하구,26380510,괴정1동,2638010100,괴정동,2638010100104860001,1,대지,486,1.0,부산광역시 사하구 괴정동 486-1,263803134004,부산광역시 사하구 괴정로,272,,2638010100104860001015455,,부산광역시 사하구 괴정로 272,604812,49388,,1,,128.990996651675,35.0967254040856
993,MA010120220805523143,땅스부대찌개,,I2,음식,I201,한식,I20102,국/탕/찌개류,G47219,기타 식료품 소매업,26,부산광역시,26320,북구,26320541,화명1동,2632010200,화명동,2632010200111300009,1,대지,1130,9.0,부산광역시 북구 화명동 1130-9,263202132001,부산광역시 북구 금곡대로,240,,2632010200111300009000001,롯데캐슬멤버스,부산광역시 북구 금곡대로 240,616721,46537,,1,,129.013452536459,35.2298562345305
999,MA010120220805523292,유림떡방앗간,,I2,음식,I210,기타 간이,I21002,떡/한과,C10711,떡류 제조업,26,부산광역시,26320,북구,26320520,구포2동,2632010500,구포동,2632010500107860001,1,대지,786,1.0,부산광역시 북구 구포동 786-1,263204196240,부산광역시 북구 백양대로1124번길,111,,2632010500107860001004546,,부산광역시 북구 백양대로1124번길 111,616804,46632,,1,,129.00452760766,35.2000585908619
1039,MA010120220805527333,상주농산,,G2,소매,G205,식료품 소매,G20506,채소/과일 소매업,G47215,"채소, 과실 및 뿌리작물 소매업",26,부산광역시,26230,부산진구,26230560,양정1동,2623010100,양정동,2623010100104580020,1,대지,458,20.0,부산광역시 부산진구 양정동 458-20,262302348120,부산광역시 부산진구 거제대로,37,,2623010100103780057003187,현대아파트,부산광역시 부산진구 거제대로 37,614791,47208,,,,129.066541546256,35.1707379472895
1050,MA010120220805529549,동양마트두구점,,G2,소매,G204,종합 소매,G20404,슈퍼마켓,G47121,슈퍼마켓,26,부산광역시,26710,기장군,26710330,철마면,2671033024,철마면,2671033024105540002,1,대지,554,2.0,부산광역시 기장군 철마면 송정리 554-2,267103000043,부산광역시 기장군 철마면 여락송정로,331,,2671033024105540002000001,,부산광역시 기장군 철마면 여락송정로 331,619873,46002,,,,129.112799969821,35.3049963035802
1110,MA010120220805533455,파비스애니원기장점,,G2,소매,G205,식료품 소매,G20508,건강보조식품 소매업,G47217,건강 보조식품 소매업,26,부산광역시,26710,기장군,26710250,기장읍,2671025021,기장읍,2671025021101250008,1,대지,125,8.0,부산광역시 기장군 기장읍 동부리 125-8,267104220297,부산광역시 기장군 기장읍 차성동로87번길,28,,2671025021101250008000420,아끼네떡방앗간,부산광역시 기장군 기장읍 차성동로87번길 28,619905,46061,,1,,129.215063823321,35.2457391938991
1137,MA010120220805538280,필휴계실,,G2,소매,G204,종합 소매,G20404,슈퍼마켓,G47129,기타 음ㆍ식료품 위주 종합 소매업,26,부산광역시,26530,사상구,26530645,감전동,2653010500,감전동,2653010500101380002,1,대지,138,2.0,부산광역시 사상구 감전동 138-2,265302006017,부산광역시 사상구 학감대로,248,,2653010500101380002008266,신사상자동차매매단지,부산광역시 사상구 학감대로 248,617801,46985,,,,128.99177887216,35.1531288375847
1146,MA010120220805537182,원조생오리,,G2,소매,G205,식료품 소매,G20503,정육점,G47212,육류 소매업,26,부산광역시,26230,부산진구,26230510,부전1동,2623010300,부전동,2623010300103410071,1,대지,341,71.0,부산광역시 부산진구 부전동 341-71,262304187695,부산광역시 부산진구 중앙대로775번길,15,,2623010300103410005021140,,부산광역시 부산진구 중앙대로775번길 15,614843,47251,,,,129.061487893163,35.1619847636859
1199,MA010120220805544225,비에이치아이시,,G2,소매,G205,식료품 소매,G20509,반찬/식료품 소매업,G47219,기타 식료품 소매업,26,부산광역시,26200,영도구,26200530,남항동,2620010600,남항동2가,2620010600101970000,1,대지,197,,부산광역시 영도구 남항동2가 197,262004184044,부산광역시 영도구 남항서로82번길,73,,2620010600101970000012262,,부산광역시 영도구 남항서로82번길 73,606802,49047,,,,129.039400550648,35.0866300271528
1201,MA010120220805544182,농부와어부식품관,,G2,소매,G204,종합 소매,G20404,슈퍼마켓,G47121,슈퍼마켓,26,부산광역시,26470,연제구,26470660,연산2동,2647010200,연산동,2647010200107750022,1,대지,775,22.0,부산광역시 연제구 연산동 775-22,264703129045,부산광역시 연제구 월드컵대로,25,,2647010200107750022004213,,부산광역시 연제구 월드컵대로 25,611827,47603,,1,,129.085459208631,35.1767714508714
1224,MA010120220805546349,우제아이엠,,G2,소매,G205,식료품 소매,G20508,건강보조식품 소매업,G47217,건강 보조식품 소매업,26,부산광역시,26230,부산진구,26230520,부전2동,2623010300,부전동,2623010300102570003,1,대지,257,3.0,부산광역시 부산진구 부전동 257-3,262303129025,부산광역시 부산진구 서면로,74,,2623010300102570003041050,아이온시티빌딩,부산광역시 부산진구 서면로 74,614776,47286,,,,129.058166292831,35.1572274300434
1225,MA010120220805547409,하얀고래수산,,G2,소매,G205,식료품 소매,G20504,건어물/젓갈 소매업,G47213,건어물 및 젓갈류 소매업,26,부산광역시,26710,기장군,26710253,장안읍,2671025332,장안읍,2671025332100040005,1,대지,4,5.0,부산광역시 기장군 장안읍 임랑리 4-5,267103173096,부산광역시 기장군 장안읍 해맞이로,229,,2671025332200040005005904,,부산광역시 기장군 장안읍 해맞이로 229,619951,46038,,,,129.26434162056,35.3199294465808
1232,MA010120220805545023,롯데후레쉬마켓,,G2,소매,G204,종합 소매,G20404,슈퍼마켓,G47121,슈퍼마켓,26,부산광역시,26290,남구,26290560,대연6동,2629010600,대연동,2629010600117860019,1,대지,1786,19.0,부산광역시 남구 대연동 1786-19,262903129046,부산광역시 남구 진남로,135,,2629010600117860019007379,,부산광역시 남구 진남로 135,608819,48448,,1,,129.080137518492,35.1387893741272
1243,MA010120220805547489,거제수산,,G2,소매,G205,식료품 소매,G20505,수산물 소매업,G47214,"신선, 냉동 및 기타 수산물 소매업",26,부산광역시,26530,사상구,26530591,모라1동,2653010200,모라동,2653010200113490005,1,대지,1349,5.0,부산광역시 사상구 모라동 1349-5,265302006008,부산광역시 사상구 백양대로,935,,2653010200113490005005569,,부산광역시 사상구 백양대로 935,617818,46929,,,,128.991313493792,35.189846535475
1245,MA010120220805547322,경남야채,,G2,소매,G205,식료품 소매,G20506,채소/과일 소매업,G47215,"채소, 과실 및 뿌리작물 소매업",26,부산광역시,26500,수영구,26500660,남천1동,2650010500,남천동,2650010500105560000,1,대지,556,,부산광역시 수영구 남천동 556,265004214067,부산광역시 수영구 광안해변로15번길,77,,2650010500105560000012884,남천해변시장,부산광역시 수영구 광안해변로15번길 77,613819,48313,,,,129.109068212561,35.1391770499134
1262,MA010120220805624908,대림상회,,G2,소매,G205,식료품 소매,G20506,채소/과일 소매업,G47215,"채소, 과실 및 뿌리작물 소매업",26,부산광역시,26230,부산진구,26230510,부전1동,2623010300,부전동,2623010300102670021,1,대지,267,21.0,부산광역시 부산진구 부전동 267-21,262302000010,부산광역시 부산진구 중앙대로,765,,2623010300102670030032083,,부산광역시 부산진구 중앙대로 765,614843,47251,,,,129.060989888398,35.1608263310886
1265,MA010120220805621526,옛기와,,G2,소매,G205,식료품 소매,G20503,정육점,G47212,육류 소매업,26,부산광역시,26710,기장군,26710250,기장읍,2671025033,기장읍,2671025033107180000,1,대지,718,,부산광역시 기장군 기장읍 시랑리 718,267103350835,부산광역시 기장군 기장읍 동부산관광9로,15,,2671025033107180000000001,,부산광역시 기장군 기장읍 동부산관광9로 15,619902,46084,,,,129.217513627675,35.1905509252007
1269,MA010120220805625311,신진주활어,,G2,소매,G205,식료품 소매,G20505,수산물 소매업,G47214,"신선, 냉동 및 기타 수산물 소매업",26,부산광역시,26380,사하구,26380601,다대1동,2638010600,다대동,2638010600106800002,1,대지,680,2.0,부산광역시 사하구 다대동 680-2,263803134006,부산광역시 사하구 다대동로,20,,2638010600106800002036419,다대씨파크활어회센타,부산광역시 사하구 다대동로 20,604824,49522,,1,,128.97200107451,35.0551618076156
1309,MA010120220805608002,옥이네찬방,,G2,소매,G205,식료품 소매,G20509,반찬/식료품 소매업,G47218,조리 반찬류 소매업,26,부산광역시,26230,부산진구,26230710,가야1동,2623011000,가야동,2623011000103860000,1,대지,386,,부산광역시 부산진구 가야동 386,262303006020,부산광역시 부산진구 엄광로,264,,2623011000103860020053892,,부산광역시 부산진구 엄광로 264,614805,47334,,1,,129.03897008622,35.1538060195319
1332,MA010120220805644203,뻔뻔한점핑밸런스다이어트,,G2,소매,G205,식료품 소매,G20508,건강보조식품 소매업,G47217,건강 보조식품 소매업,26,부산광역시,26530,사상구,26530680,엄궁동,2653010800,엄궁동,2653010800103530002,1,대지,353,2.0,부산광역시 사상구 엄궁동 353-2,265302006002,부산광역시 사상구 낙동대로,734,1.0,2653010800103530002006360,은수장,부산광역시 사상구 낙동대로 734-1,617829,47042,,4,,128.96915390697,35.1267926365805
1335,MA010120220805643097,태양마트,,G2,소매,G204,종합 소매,G20404,슈퍼마켓,G47129,기타 음ㆍ식료품 위주 종합 소매업,26,부산광역시,26350,해운대구,26350590,반여3동,2635010300,반여동,2635010300116120002,1,대지,1612,2.0,부산광역시 해운대구 반여동 1612-2,263504199174,부산광역시 해운대구 재반로255번길,27,,2635010300116120002021439,영선주택,부산광역시 해운대구 재반로255번길 27,612817,48024,,1,,129.129970959545,35.2001788527866
1339,MA010120220805644276,소담정육마트,,G2,소매,G205,식료품 소매,G20503,정육점,G47212,육류 소매업,26,부산광역시,26230,부산진구,26230740,개금1동,2623011100,개금동,2623011100101770017,1,대지,177,17.0,부산광역시 부산진구 개금동 177-17,262304187369,부산광역시 부산진구 복지로13번길,62,,2623011100101770017000695,,부산광역시 부산진구 복지로13번길 62,614813,47328,,1,,129.023779193011,35.1519702880969
1344,MA010120220805643551,삼성건강기능식품,,G2,소매,G205,식료품 소매,G20508,건강보조식품 소매업,G47217,건강 보조식품 소매업,26,부산광역시,26260,동래구,26260600,사직3동,2626010900,사직동,2626010900101400008,1,대지,140,8.0,부산광역시 동래구 사직동 140-8,262603130017,부산광역시 동래구 여고북로,160,,2626010900101400008002047,,부산광역시 동래구 여고북로 160,607813,47830,,4,,129.073812119518,35.2018797204017
1349,MA010120220805643911,신앙촌상회,,G2,소매,G205,식료품 소매,G20509,반찬/식료품 소매업,G47219,기타 식료품 소매업,26,부산광역시,26470,연제구,26470650,연산1동,2647010200,연산동,2647010200103060020,1,대지,306,20.0,부산광역시 연제구 연산동 306-20,264704211118,부산광역시 연제구 과정로348번길,8,,2647010200103060020003277,,부산광역시 연제구 과정로348번길 8,611811,47559,,1,,129.090668961978,35.1911918854624
1369,MA010120220805645383,신화,,G2,소매,G205,식료품 소매,G20509,반찬/식료품 소매업,G47218,조리 반찬류 소매업,26,부산광역시,26710,기장군,26710256,정관읍,2671025627,정관읍,2671025627107280000,1,대지,728,,부산광역시 기장군 정관읍 모전리 728,267104220092,부산광역시 기장군 정관읍 모전1길,9,,2671032027107280000000001,정관동일스위트3차,부산광역시 기장군 정관읍 모전1길 9,619747,46008,,2,,129.16455901896,35.337408510258
1387,MA010120220805641055,떡일품,,I2,음식,I210,기타 간이,I21002,떡/한과,C10711,떡류 제조업,26,부산광역시,26110,중구,26110560,부평동,2611012400,부평동2가,2611012400100680001,1,대지,68,1.0,부산광역시 중구 부평동2가 68-1,261104175236,부산광역시 중구 중구로39번길,41,,2611012400100680001007867,,부산광역시 중구 중구로39번길 41,600806,48977,,,,129.025624287472,35.1013140300599
1397,MA010120220805641933,씨유망미중앙,,G2,소매,G204,종합 소매,G20405,편의점,G47129,기타 음ㆍ식료품 위주 종합 소매업,26,부산광역시,26500,수영구,26500740,망미1동,2650010100,망미동,2650010100104410027,1,대지,441,27.0,부산광역시 수영구 망미동 441-27,265004214154,부산광역시 수영구 망미배산로18번길,21,,2650010100104410027003519,,부산광역시 수영구 망미배산로18번길 21,613823,48210,,1,,129.106110197085,35.1752055065084
1399,MA010120220805642254,영식품,,G2,소매,G205,식료품 소매,G20508,건강보조식품 소매업,G47217,건강 보조식품 소매업,26,부산광역시,26380,사하구,26380510,괴정1동,2638010100,괴정동,2638010100107950003,1,대지,795,3.0,부산광역시 사하구 괴정동 795-3,263803134017,부산광역시 사하구 승학로,215,,2638010100107950003035661,,부산광역시 사하구 승학로 215,604815,49321,,1,,128.988921802767,35.1011051572477
1405,MA010120220805642848,한국마트,,G2,소매,G204,종합 소매,G20404,슈퍼마켓,G47121,슈퍼마켓,26,부산광역시,26170,동구,26170650,범일1동,2617010400,범일동,2617010400114420001,1,대지,1442,1.0,부산광역시 동구 범일동 1442-1,261703125011,부산광역시 동구 망양로,897,,2617010400114420001004827,,부산광역시 동구 망양로 897,601809,48720,,2,,129.049506983881,35.1401762557858
1416,MA010120220805638882,해변슈퍼,,G2,소매,G204,종합 소매,G20404,슈퍼마켓,G47129,기타 음ㆍ식료품 위주 종합 소매업,26,부산광역시,26200,영도구,26200650,동삼1동,2620012100,동삼동,2620012100200650001,2,산,65,1.0,부산광역시 영도구 동삼동 산65-1,262003128022,부산광역시 영도구 중리남로,2,35.0,2620012100106400003852963,,부산광역시 영도구 중리남로 2-35,606081,49123,,,,129.066116434531,35.0673965052036
1486,MA010120220805649058,뉴참마트,,G2,소매,G204,종합 소매,G20404,슈퍼마켓,G47121,슈퍼마켓,26,부산광역시,26530,사상구,26530591,모라1동,2653010200,모라동,2653010200103340000,1,대지,334,,부산광역시 사상구 모라동 334,265304217186,부산광역시 사상구 백양대로934번길,20,,2653010200103340000001487,삼정그린코아아파트,부산광역시 사상구 백양대로934번길 20,617818,46928,,1,,128.992938198358,35.1889138037842
1517,MA010120220805685300,나이스크림E편한세상,,G2,소매,G204,종합 소매,G20404,슈퍼마켓,G47216,"빵류, 과자류 및 당류 소매업",26,부산광역시,26230,부산진구,26230780,범천2동,2623010400,범천동,2623010400111870000,1,대지,1187,,부산광역시 부산진구 범천동 1187,262303129031,부산광역시 부산진구 신암로,133,,2623010400111870000052957,E편한세상서면더센트럴,부산광역시 부산진구 신암로 133,614831,47348,,2,,129.050066344869,35.1521148914959
1520,MA010120220805685555,오굿찬,,G2,소매,G205,식료품 소매,G20509,반찬/식료품 소매업,G47218,조리 반찬류 소매업,26,부산광역시,26200,영도구,26200650,동삼1동,2620012100,동삼동,2620012100103170008,1,대지,317,8.0,부산광역시 영도구 동삼동 317-8,262003128009,부산광역시 영도구 동삼로,56,,2620012100103170008025112,한나타워,부산광역시 영도구 동삼로 56,606807,49101,,,,129.07082138336,35.0784242914638
1527,MA010120220805683903,정성반찬,,G2,소매,G205,식료품 소매,G20509,반찬/식료품 소매업,G47218,조리 반찬류 소매업,26,부산광역시,26260,동래구,26260580,사직1동,2626010900,사직동,2626010900100560020,1,대지,56,20.0,부산광역시 동래구 사직동 56-20,262604190235,부산광역시 동래구 사직북로28번길,112,,2626010900100560020008980,,부산광역시 동래구 사직북로28번길 112,607814,47852,,,,129.064629615982,35.2017444711986
1561,MA010120220805707253,알파상회,,G2,소매,G205,식료품 소매,G20506,채소/과일 소매업,G47215,"채소, 과실 및 뿌리작물 소매업",26,부산광역시,26230,부산진구,26230510,부전1동,2623010300,부전동,2623010300103450038,1,대지,345,38.0,부산광역시 부산진구 부전동 345-38,262304187399,부산광역시 부산진구 새싹로14번길,77,,2623010300103450038009438,,부산광역시 부산진구 새싹로14번길 77,614843,47252,,1,,129.060359793257,35.1621749211367
1579,MA010120220805697592,태양무역,,G2,소매,G204,종합 소매,G20404,슈퍼마켓,G47129,기타 음ㆍ식료품 위주 종합 소매업,26,부산광역시,26110,중구,26110590,영주1동,2611010100,영주동,2611010100106400021,1,대지,640,21.0,부산광역시 중구 영주동 640-21,261104175039,부산광역시 중구 대영로242번안길,3,10.0,2611010100106400021001772,,부산광역시 중구 대영로242번안길 3-10,600811,48923,,2,,129.036255354703,35.1102015945028
1582,MA010120220805697777,JH한바구니,,G2,소매,G205,식료품 소매,G20506,채소/과일 소매업,G47215,"채소, 과실 및 뿌리작물 소매업",26,부산광역시,26470,연제구,26470660,연산2동,2647010200,연산동,2647010200107750010,1,대지,775,10.0,부산광역시 연제구 연산동 775-10,264703129045,부산광역시 연제구 월드컵대로,19,,2647010200107750010002937,,부산광역시 연제구 월드컵대로 19,611827,47603,,,,129.085563946517,35.1763919297203
1610,MA010120220805695871,제이디컴퍼니,,G2,소매,G204,종합 소매,G20404,슈퍼마켓,G47129,기타 음ㆍ식료품 위주 종합 소매업,26,부산광역시,26410,금정구,26410670,남산동,2641010400,남산동,2641010400109870050,1,대지,987,50.0,부산광역시 금정구 남산동 987-50,264104205119,부산광역시 금정구 남산로37번길,36,,2641010400109870050006462,,부산광역시 금정구 남산로37번길 36,609816,46223,,2,,129.087827047909,35.2654099667254
1657,MA010120220805688516,브로코스,,G2,소매,G205,식료품 소매,G20508,건강보조식품 소매업,G47217,건강 보조식품 소매업,26,부산광역시,26170,동구,26170530,초량3동,2617010100,초량동,2617010100111430013,1,대지,1143,13.0,부산광역시 동구 초량동 1143-13,261702000010,부산광역시 동구 중앙대로,319,,2617010100111430013014564,부산YMCA빌딩,부산광역시 동구 중앙대로 319,601836,48792,,9,,129.044817326577,35.1252625999451
1695,MA010120220805726216,감천쫀드기,,G2,소매,G205,식료품 소매,G20507,아이스크림 할인점,G47216,"빵류, 과자류 및 당류 소매업",26,부산광역시,26380,사하구,26380630,감천2동,2638010800,감천동,2638010800100061175,1,대지,6,1175.0,부산광역시 사하구 감천동 6-1175,263803134002,부산광역시 사하구 감내2로,136,,2638010800100061175039162,,부산광역시 사하구 감내2로 136,604800,49364,,2,,129.008814077254,35.0980928281643
1706,MA010120220805735771,우리홀푸드마트,,G2,소매,G204,종합 소매,G20404,슈퍼마켓,G47121,슈퍼마켓,26,부산광역시,26200,영도구,26200650,동삼1동,2620012100,동삼동,2620012100104360000,1,대지,436,,부산광역시 영도구 동삼동 436,262003128020,부산광역시 영도구 절영로,531,,2620012100104360000019055,탑마트,부산광역시 영도구 절영로 531,606808,49108,,,,129.073296326697,35.0739945538629
1707,MA010120220805735799,롯데와인롯데광복점,,G2,소매,G206,음료 소매,G20602,주류 소매업,G47221,음료 소매업,26,부산광역시,26110,중구,26110510,중앙동,2611011000,중앙동7가,2611011000100350000,1,대지,35,,부산광역시 중구 중앙동7가 35,261102000010,부산광역시 중구 중앙대로,2,,2611011000100200001000001,롯데백화점광복점,부산광역시 중구 중앙대로 2,600017,48944,,1,,129.036730232514,35.0983260672492
1714,MA010120220805736344,프로미,,G2,소매,G204,종합 소매,G20404,슈퍼마켓,G47129,기타 음ㆍ식료품 위주 종합 소매업,26,부산광역시,26470,연제구,26470690,연산5동,2647010200,연산동,2647010200107060009,1,대지,706,9.0,부산광역시 연제구 연산동 706-9,264704211341,부산광역시 연제구 월드컵대로91번가길,42,,2647010200107060009000001,흑석푸른마을1,부산광역시 연제구 월드컵대로91번가길 42,611839,47596,,4,,129.080507096625,35.1833417693026
1716,MA010120220805737466,운철과일,,G2,소매,G205,식료품 소매,G20506,채소/과일 소매업,G47215,"채소, 과실 및 뿌리작물 소매업",26,부산광역시,26410,금정구,26410555,금사회동동,2641011200,회동동,2641011200102010004,1,대지,201,4.0,부산광역시 금정구 회동동 201-4,264104205460,부산광역시 금정구 회천로13번길,37,,2641011200102010012035480,팔봉맨션,부산광역시 금정구 회천로13번길 37,609845,46263,,1,,129.114794163517,35.2258555851096
1719,MA010120220805737396,영일상회,,G2,소매,G205,식료품 소매,G20506,채소/과일 소매업,G47215,"채소, 과실 및 뿌리작물 소매업",26,부산광역시,26110,중구,26110545,보수동,2611012200,보수동3가,2611012200100460001,1,대지,46,1.0,부산광역시 중구 보수동3가 46-1,261102006003,부산광역시 중구 보수대로,94,,2611012200100460001005264,보수종합시장,부산광역시 중구 보수대로 94,600083,48966,,1,,129.02183275032,35.1042305376697
1722,MA010120220805737235,기장해산물,,G2,소매,G205,식료품 소매,G20504,건어물/젓갈 소매업,G47213,건어물 및 젓갈류 소매업,26,부산광역시,26710,기장군,26710250,기장읍,2671025028,기장읍,2671025028102030031,1,대지,203,31.0,부산광역시 기장군 기장읍 대변리 203-31,267104220163,부산광역시 기장군 기장읍 연화1길,208,21.0,2671025028102030031000001,,부산광역시 기장군 기장읍 연화1길 208-21,619904,46079,,,,129.227804080472,35.2206067834157
1771,MA010120220805728962,스마일찰진꽈배기,,I2,음식,I210,기타 간이,I21007,김밥/만두/분식,G47216,"빵류, 과자류 및 당류 소매업",26,부산광역시,26140,서구,26140540,서대신1동,2614010500,서대신동2가,2614010500101420001,1,대지,142,1.0,부산광역시 서구 서대신동2가 142-1,261404178116,부산광역시 서구 대영로45번길,11,,2614010500101420001020159,,부산광역시 서구 대영로45번길 11,602819,49234,,1,,129.016091991775,35.1100838282107
1775,MA010120220805729194,풍성한마트,,G2,소매,G204,종합 소매,G20404,슈퍼마켓,G47129,기타 음ㆍ식료품 위주 종합 소매업,26,부산광역시,26110,중구,26110590,영주1동,2611010100,영주동,2611010100100600048,1,대지,60,48.0,부산광역시 중구 영주동 60-48,261103006001,부산광역시 중구 초량상로,5,,2611010100100600048001276,,부산광역시 중구 초량상로 5,600810,48910,,,,129.035003063824,35.1126641044413
1787,MA010120220805808543,금정슈퍼,,G2,소매,G204,종합 소매,G20404,슈퍼마켓,G47129,기타 음ㆍ식료품 위주 종합 소매업,26,부산광역시,26410,금정구,26410670,남산동,2641010400,남산동,2641010400102070005,1,대지,207,5.0,부산광역시 금정구 남산동 207-5,264104205089,부산광역시 금정구 금샘로578번길,60,,2641010400102070005021271,,부산광역시 금정구 금샘로578번길 60,609814,46217,,1,,129.088149504408,35.2730867669465
1791,MA010120220805806743,신앙촌상회,,G2,소매,G205,식료품 소매,G20509,반찬/식료품 소매업,G47219,기타 식료품 소매업,26,부산광역시,26710,기장군,26710250,기장읍,2671025024,기장읍,2671025024109190011,1,대지,919,11.0,부산광역시 기장군 기장읍 죽성리 919-11,267103140049,부산광역시 기장군 기장읍 죽성로,197,,2671025023102390002000001,시온주택,부산광역시 기장군 기장읍 죽성로 197,619906,46078,,,,129.238862641347,35.2471834478023
1811,MA010120220805805120,씨엠과자몰,,G2,소매,G204,종합 소매,G20404,슈퍼마켓,G47129,기타 음ㆍ식료품 위주 종합 소매업,26,부산광역시,26380,사하구,26380590,장림2동,2638010500,장림동,2638010500105660007,1,대지,566,7.0,부산광역시 사하구 장림동 566-7,263804202469,부산광역시 사하구 장평로41번길,61,,2638010500105660007000127,강남아파트,부산광역시 사하구 장평로41번길 61,604769,49483,,,,128.970318463961,35.0713827091113
1815,MA010120220805806231,퍼다마아이스크림할인점,,G2,소매,G204,종합 소매,G20404,슈퍼마켓,G47216,"빵류, 과자류 및 당류 소매업",26,부산광역시,26200,영도구,26200670,동삼3동,2620012100,동삼동,2620012100111230007,1,대지,1123,7.0,부산광역시 영도구 동삼동 1123-7,262003128015,부산광역시 영도구 상리로,35,,2620012100111230007000001,,부산광역시 영도구 상리로 35,606083,49089,,,,129.068183632738,35.0846852582349
1906,MA010120220805834571,대광농산,,G2,소매,G205,식료품 소매,G20509,반찬/식료품 소매업,G47219,기타 식료품 소매업,26,부산광역시,26410,금정구,26410670,남산동,2641010400,남산동,2641010400100930001,1,대지,93,1.0,부산광역시 금정구 남산동 93-1,264103130022,부산광역시 금정구 금강로,700,,2641010400100930001035010,남산시장빌딩,부산광역시 금정구 금강로 700,609811,46220,,1,,129.089315208375,35.26984936196
1947,MA010120220805830208,봉림떡방앗간,,I2,음식,I210,기타 간이,I21002,떡/한과,C10711,떡류 제조업,26,부산광역시,26260,동래구,26260545,명륜동,2626010700,명륜동,2626010700100050006,1,대지,5,6.0,부산광역시 동래구 명륜동 5-6,262603130023,부산광역시 동래구 명륜로,267,,2626010700100020068013157,,부산광역시 동래구 명륜로 267,607802,47739,,,,129.085456311754,35.2170002429774
1952,MA010120220805831838,대가원푸드,,G2,소매,G205,식료품 소매,G20503,정육점,G47212,육류 소매업,26,부산광역시,26410,금정구,26410510,서1동,2641011000,서동,2641011000101510053,1,대지,151,53.0,부산광역시 금정구 서동 151-53,264103135018,부산광역시 금정구 동현로,146,1.0,2641011000101510053005955,,부산광역시 금정구 동현로 146-1,609829,46318,,,,129.098583961746,35.2187837399759
1953,MA010120220805832299,푸줏간,,G2,소매,G205,식료품 소매,G20503,정육점,G47212,육류 소매업,26,부산광역시,26530,사상구,26530620,괘법동,2653010400,괘법동,2653010400108330011,1,대지,833,11.0,부산광역시 사상구 괘법동 833-11,265304217215,부산광역시 사상구 사상로250번길,13,,2653010400108330008005649,ELS어학원,부산광역시 사상구 사상로250번길 13,617806,46964,,1,,128.983211283023,35.1671523238367
1969,MA010120220805819165,만덕고등학교사회적협동조합,,G2,소매,G204,종합 소매,G20404,슈퍼마켓,G47129,기타 음ㆍ식료품 위주 종합 소매업,26,부산광역시,26320,북구,26320572,만덕2동,2632010300,만덕동,2632010300109480000,1,대지,948,,부산광역시 북구 만덕동 948,263204196382,부산광역시 북구 함박봉로140번길,98,12.0,2632010300109480000010854,만덕고등학교,부산광역시 북구 함박봉로140번길 98-12,616842,46616,,,,129.034604811502,35.2016892479288
1972,MA010120220805823107,정우상회,,G2,소매,G205,식료품 소매,G20506,채소/과일 소매업,G47215,"채소, 과실 및 뿌리작물 소매업",26,부산광역시,26530,사상구,26530645,감전동,2653010500,감전동,2653010500101510003,1,대지,151,3.0,부산광역시 사상구 감전동 151-3,265304217294,부산광역시 사상구 새벽로137번길,51,,2653010500100030000024058,동영산업,부산광역시 사상구 새벽로137번길 51,617803,46989,,,,128.979834760289,35.1537939003704
2045,MA010120220805843601,동방마트정육,,G2,소매,G205,식료품 소매,G20503,정육점,G47212,육류 소매업,26,부산광역시,26500,수영구,26500760,광안1동,2650010400,광안동,2650010400101310020,1,대지,131,20.0,부산광역시 수영구 광안동 131-20,265004214282,부산광역시 수영구 수영로606번길,129,,2650010400101310020002612,,부산광역시 수영구 수영로606번길 129,613802,48292,,,,129.120749934915,35.1588369952344
2079,MA010120220805842217,민락김치,,G2,소매,G205,식료품 소매,G20509,반찬/식료품 소매업,G47218,조리 반찬류 소매업,26,부산광역시,26500,수영구,26500800,민락동,2650010300,민락동,2650010300102310023,1,대지,231,23.0,부산광역시 수영구 민락동 231-23,265004214069,부산광역시 수영구 광안해변로277번길,45,1.0,2650010300102310023003467,,부산광역시 수영구 광안해변로277번길 45-1,613828,48286,,,,129.123590785084,35.1579002819593
2096,MA010120220805865563,김해상회,,G2,소매,G205,식료품 소매,G20506,채소/과일 소매업,G47215,"채소, 과실 및 뿌리작물 소매업",26,부산광역시,26290,남구,26290550,대연5동,2629010600,대연동,2629010600114280001,1,대지,1428,1.0,부산광역시 남구 대연동 1428-1,262904193076,부산광역시 남구 못골로69번길,8,5.0,2629010600114280001005125,,부산광역시 남구 못골로69번길 8-5,608808,48439,,1,,129.08985128529,35.1365030052973
2103,MA010120220805865788,금복닭집,,G2,소매,G205,식료품 소매,G20503,정육점,G47212,육류 소매업,26,부산광역시,26230,부산진구,26230670,당감1동,2623010900,당감동,2623010900102920128,1,대지,292,128.0,부산광역시 부산진구 당감동 292-128,262304187304,부산광역시 부산진구 백양대로60번길,58,,2623010900102920128036890,,부산광역시 부산진구 백양대로60번길 58,614817,47182,,,,129.042207444503,35.1649645108014
2124,MA010120220805861207,기름집1988,,G2,소매,G205,식료품 소매,G20509,반찬/식료품 소매업,G47219,기타 식료품 소매업,26,부산광역시,26170,동구,26170660,범일2동,2617010400,범일동,2617010400108300009,1,대지,830,9.0,부산광역시 동구 범일동 830-9,261704181378,부산광역시 동구 자성로133번길,10,,2617010400108300009005069,,부산광역시 동구 자성로133번길 10,601807,48742,,2,,129.065104768519,35.1379939983492
2181,MA010120220805891992,안나식품,,G2,소매,G205,식료품 소매,G20503,정육점,G47212,육류 소매업,26,부산광역시,26200,영도구,26200590,봉래1동,2620011600,봉래동2가,2620011600100230031,1,대지,23,31.0,부산광역시 영도구 봉래동2가 23-31,262004184210,부산광역시 영도구 절영로13번길,37,,2620011600100230031010595,,부산광역시 영도구 절영로13번길 37,606062,49035,,1,,129.042117894212,35.0924838575462
2183,MA010120220805890564,슈퍼마켓,,G2,소매,G204,종합 소매,G20404,슈퍼마켓,G47129,기타 음ㆍ식료품 위주 종합 소매업,26,부산광역시,26350,해운대구,26350595,반여4동,2635010300,반여동,2635010300111900001,1,대지,1190,1.0,부산광역시 해운대구 반여동 1190-1,263503006022,부산광역시 해운대구 삼어로,61,,2635010300111740003024916,우방신세계아파트,부산광역시 해운대구 삼어로 61,612717,48046,,,,129.116171109909,35.2028667637273
2225,MA010120220805889948,좋은부산요양병원편의점,,G2,소매,G204,종합 소매,G20404,슈퍼마켓,G47129,기타 음ㆍ식료품 위주 종합 소매업,26,부산광역시,26530,사상구,26530670,학장동,2653010700,학장동,2653010700101640006,1,대지,164,6.0,부산광역시 사상구 학장동 164-6,265304217378,부산광역시 사상구 학감대로39번길,67,,2653010700101640000001637,좋은부산요양병원,부산광역시 사상구 학감대로39번길 67,617841,47055,,,,128.996400283296,35.1333863082376
2240,MA010120220805907149,에이치에스마켓,,G2,소매,G205,식료품 소매,G20509,반찬/식료품 소매업,G47219,기타 식료품 소매업,26,부산광역시,26470,연제구,26470680,연산4동,2647010200,연산동,2647010200105850004,1,대지,585,4.0,부산광역시 연제구 연산동 585-4,264703137015,부산광역시 연제구 세병로,19,,2647010200105850004024661,,부산광역시 연제구 세병로 19,611820,47519,,,,129.083748226333,35.1901272857471
2251,MA010120220805899262,사계절아이스크림할인점,,G2,소매,G221,기타 상품 소매,G22199,그 외 기타 상품 전문 소매업,G47216,"빵류, 과자류 및 당류 소매업",26,부산광역시,26230,부산진구,26230740,개금1동,2623011100,개금동,2623011100101710133,1,대지,171,133.0,부산광역시 부산진구 개금동 171-133,262303129042,부산광역시 부산진구 냉정로,211,2.0,2623011100101710133009211,,부산광역시 부산진구 냉정로 211-2,614813,47328,,1,,129.023042842502,35.1510120132993
2254,MA010120220805899566,로즈애플,,G2,소매,G205,식료품 소매,G20506,채소/과일 소매업,G47215,"채소, 과실 및 뿌리작물 소매업",26,부산광역시,26440,강서구,26440535,명지1동,2644010400,명지동,2644010400135940000,1,대지,3594,,부산광역시 강서구 명지동 3594,264403350867,부산광역시 강서구 명지국제7로,37,,2644010400135940000000001,더샵명지퍼스트월드2단지,부산광역시 강서구 명지국제7로 37,618200,46726,,1,,128.905512248145,35.0975652312608
2259,MA010120220805899772,유어네이키드치즈,,G2,소매,G205,식료품 소매,G20509,반찬/식료품 소매업,G47219,기타 식료품 소매업,26,부산광역시,26350,해운대구,26350510,우1동,2635010500,우동,2635010500105570005,1,대지,557,5.0,부산광역시 해운대구 우동 557-5,263504199129,부산광역시 해운대구 우동1로20번길,53,,2635010500105570005000002,,부산광역시 해운대구 우동1로20번길 53,612818,48087,,1,,129.159176862087,35.1650554990423
2275,MA010120220805901321,할매슈퍼,,G2,소매,G204,종합 소매,G20404,슈퍼마켓,G47129,기타 음ㆍ식료품 위주 종합 소매업,26,부산광역시,26230,부산진구,26230740,개금1동,2623011100,개금동,2623011100101950017,1,대지,195,17.0,부산광역시 부산진구 개금동 195-17,262303129003,부산광역시 부산진구 개금온정로,11,,2623011100101950017025633,,부산광역시 부산진구 개금온정로 11,614813,47268,,,,129.025071037854,35.1543390516816
2280,MA010120220805898141,메종스토아,,G2,소매,G204,종합 소매,G20404,슈퍼마켓,G47129,기타 음ㆍ식료품 위주 종합 소매업,26,부산광역시,26500,수영구,26500730,수영동,2650010200,수영동,2650010200105260000,1,대지,526,,부산광역시 수영구 수영동 526,265003131037,부산광역시 수영구 수영로,767,,2650010200105260000009877,메종빌딩,부산광역시 수영구 수영로 767,613832,48222,,1,,129.12270412463,35.1668592560293
2282,MA010120220805897724,아시아마트,,G2,소매,G204,종합 소매,G20404,슈퍼마켓,G47129,기타 음ㆍ식료품 위주 종합 소매업,26,부산광역시,26440,강서구,26440560,녹산동,2644011000,화전동,2644011000105700013,1,대지,570,13.0,부산광역시 강서구 화전동 570-13,264404208568,부산광역시 강서구 화전산단4로30번길,25,15.0,2644011000105700013000001,,부산광역시 강서구 화전산단4로30번길 25-15,618210,46735,,1,,128.882405049477,35.1099858459061
2283,MA010120220805898092,당풍중한문화상품점,,G2,소매,G204,종합 소매,G20404,슈퍼마켓,G47129,기타 음ㆍ식료품 위주 종합 소매업,26,부산광역시,26410,금정구,26410610,장전2동,2641010800,장전동,2641010800104230010,1,대지,423,10.0,부산광역시 금정구 장전동 423-10,264103130022,부산광역시 금정구 금강로,238,,2641010800104230010023808,,부산광역시 금정구 금강로 238,609392,46293,,1,,129.08474081695,35.2292654271599
2355,MA010120220805930463,참꿀마을,,G2,소매,G206,음료 소매,G20603,생수/음료 소매업,G47221,음료 소매업,26,부산광역시,26350,해운대구,26350530,중1동,2635010600,중동,2635010600113800014,1,대지,1380,14.0,부산광역시 해운대구 중동 1380-14,263504199007,부산광역시 해운대구 구남로29번길,21,,2635010600113800014001796,세이브존,부산광역시 해운대구 구남로29번길 21,612721,48095,,1,,129.161478952438,35.1625276100333
2370,MA010120220805927595,밀양돼지국밥,,G2,소매,G204,종합 소매,G20404,슈퍼마켓,G47121,슈퍼마켓,26,부산광역시,26440,강서구,26440510,대저1동,2644010100,대저1동,2644010100112790002,1,대지,1279,2.0,부산광역시 강서구 대저1동 1279-2,264403136037,부산광역시 강서구 대저중앙로,162,,2644010100112790002000001,,부산광역시 강서구 대저중앙로 162,618806,46700,,1,,128.96537754,35.2194865777141
2402,MA010120220805953124,길축산,,G2,소매,G205,식료품 소매,G20503,정육점,G47212,육류 소매업,26,부산광역시,26530,사상구,26530600,덕포1동,2653010300,덕포동,2653010300104220021,1,대지,422,21.0,부산광역시 사상구 덕포동 422-21,265303132023,부산광역시 사상구 사상로,289,,2653010300104220021029229,박애가정의원,부산광역시 사상구 사상로 289,617816,46950,,1,,128.982672705707,35.1707442575443
2425,MA010120220805944439,고기이즈,,G2,소매,G205,식료품 소매,G20503,정육점,G47212,육류 소매업,26,부산광역시,26440,강서구,26440520,대저2동,2644010200,대저2동,2644010200120980000,1,대지,2098,,부산광역시 강서구 대저2동 2098,264404208108,부산광역시 강서구 공항앞길85번길,19,,2644010200120980000000001,,부산광역시 강서구 공항앞길85번길 19,618807,46720,,1,,128.952690451063,35.1771403287384
2440,MA010120220805947342,슈퍼마켓,,G2,소매,G204,종합 소매,G20404,슈퍼마켓,G47129,기타 음ㆍ식료품 위주 종합 소매업,26,부산광역시,26500,수영구,26500740,망미1동,2650010100,망미동,2650010100109200010,1,대지,920,10.0,부산광역시 수영구 망미동 920-10,265004214159,부산광역시 수영구 망미배산로48번길,85,23.0,2650010100109200010005133,부산남일고등학교,부산광역시 수영구 망미배산로48번길 85-23,613824,48201,,,,129.101193671447,35.1785854293844
2537,MA010120220805968367,흰돌상회,,G2,소매,G205,식료품 소매,G20506,채소/과일 소매업,G47215,"채소, 과실 및 뿌리작물 소매업",26,부산광역시,26230,부산진구,26230510,부전1동,2623010300,부전동,2623010300102720001,1,대지,272,1.0,부산광역시 부산진구 부전동 272-1,262304187414,부산광역시 부산진구 새싹로8번길,69,,2623010300102720001017872,,부산광역시 부산진구 새싹로8번길 69,614843,47251,,1,,129.060774835375,35.1611707430954
2569,MA010120220805964876,네잎크로버,,G2,소매,G204,종합 소매,G20404,슈퍼마켓,G47129,기타 음ㆍ식료품 위주 종합 소매업,26,부산광역시,26350,해운대구,26350530,중1동,2635010600,중동,2635010600109420007,1,대지,942,7.0,부산광역시 해운대구 중동 942-7,263504199011,부산광역시 해운대구 달맞이길,56,,2635010600109420007023036,,부산광역시 해운대구 달맞이길 56,612846,48097,,,,129.170799790696,35.1611308854307
2598,MA010120220805959105,벽돌집,,G2,소매,G205,식료품 소매,G20503,정육점,G47212,육류 소매업,26,부산광역시,26140,서구,26140530,동대신3동,2614010300,동대신동3가,2614010300103840000,1,대지,384,,부산광역시 서구 동대신동3가 384,261404178121,부산광역시 서구 대영로85번길,74,,2614010300103840000020092,,부산광역시 서구 대영로85번길 74,602813,49212,,1,,129.018984064654,35.1141789636247
2640,MA010120220805956881,에스제이아이스크림할인점,,G2,소매,G204,종합 소매,G20404,슈퍼마켓,G47216,"빵류, 과자류 및 당류 소매업",26,부산광역시,26290,남구,26290590,용호3동,2629010700,용호동,2629010700103660008,1,대지,366,8.0,부산광역시 남구 용호동 366-8,262904193227,부산광역시 남구 용호로109번길,3,,2629010700103660008009139,중고가전마트,부산광역시 남구 용호로109번길 3,608831,48578,,,,129.112638020442,35.1224956389945
2643,MA010120220805954174,플러스투,,G2,소매,G204,종합 소매,G20404,슈퍼마켓,G47129,기타 음ㆍ식료품 위주 종합 소매업,26,부산광역시,26140,서구,26140530,동대신3동,2614010300,동대신동3가,2614010300105520000,1,대지,552,,부산광역시 서구 동대신동3가 552,261403126004,부산광역시 서구 대신공원로,26,,2614010300100010022002810,동아대학교병원,부산광역시 서구 대신공원로 26,602103,49201,,,,129.018777862363,35.1205265671073
2648,MA010120220805954149,부산골프존스넥바,,G2,소매,G204,종합 소매,G20404,슈퍼마켓,G47129,기타 음ㆍ식료품 위주 종합 소매업,26,부산광역시,26110,중구,26110510,중앙동,2611010600,중앙동3가,2611010600100010000,1,대지,1,,부산광역시 중구 중앙동3가 1,261102000010,부산광역시 중구 중앙대로,63,,2611010600100010000001876,부산우체국,부산광역시 중구 중앙대로 63,600013,48931,,1,,129.03600448636,35.1033801262886
2657,MA010120220805955543,그린마트,,G2,소매,G204,종합 소매,G20404,슈퍼마켓,G47121,슈퍼마켓,26,부산광역시,26470,연제구,26470630,거제3동,2647010100,거제동,2647010100104530008,1,대지,453,8.0,부산광역시 연제구 거제동 453-8,264704211008,부산광역시 연제구 거제대로178번길,52,,2647010100104530008005783,,부산광역시 연제구 거제대로178번길 52,611801,47543,,,,129.073068425104,35.1837414172754
2690,MA010120220805988573,충무얼음,,G2,소매,G206,음료 소매,G20601,얼음 소매업,G47221,음료 소매업,26,부산광역시,26140,서구,26140640,충무동,2614012100,충무동2가,2614012100100040002,1,대지,4,2.0,부산광역시 서구 충무동2가 4-2,261404178014,부산광역시 서구 구덕로119번길,40,4.0,2614012100100040002013807,,부산광역시 서구 구덕로119번길 40-4,602012,49253,,1,,129.022725139642,35.0948844649476
2751,MA010120220806001665,쎈언니통영생굴,,G2,소매,G205,식료품 소매,G20505,수산물 소매업,G47214,"신선, 냉동 및 기타 수산물 소매업",26,부산광역시,26380,사하구,26380562,하단2동,2638010300,하단동,2638010300105010001,1,대지,501,1.0,부산광역시 사하구 하단동 501-1,263804202162,부산광역시 사하구 낙동대로575번길,72,,2638010300105010001040528,백조연립,부산광역시 사하구 낙동대로575번길 72,604851,49307,,1,,128.961236034917,35.1112343052293
2752,MA010120220806001695,정석수산,,G2,소매,G205,식료품 소매,G20504,건어물/젓갈 소매업,G47213,건어물 및 젓갈류 소매업,26,부산광역시,26710,기장군,26710259,일광읍,2671025927,일광읍,2671025927101530004,1,대지,153,4.0,부산광역시 기장군 일광읍 칠암리 153-4,267104220345,부산광역시 기장군 일광읍 칠암2길,9,,2671031027101530004012405,,부산광역시 기장군 일광읍 칠암2길 9,619911,46040,,,,129.259126977012,35.2985227454592
2791,MA010120220805995384,하나로건강기능식품의료기기,,G2,소매,G205,식료품 소매,G20508,건강보조식품 소매업,G47217,건강 보조식품 소매업,26,부산광역시,26230,부산진구,26230740,개금1동,2623011100,개금동,2623011100101710127,1,대지,171,127.0,부산광역시 부산진구 개금동 171-127,262302006015,부산광역시 부산진구 가야대로,478,,2623011100101710127049038,,부산광역시 부산진구 가야대로 478,614813,47323,,3,,129.024339524285,35.1528939905208
2792,MA010120220805995987,삼순이반찬가게,,G2,소매,G205,식료품 소매,G20509,반찬/식료품 소매업,G47219,기타 식료품 소매업,26,부산광역시,26350,해운대구,26350660,재송2동,2635010400,재송동,2635010400111530035,1,대지,1153,35.0,부산광역시 해운대구 재송동 1153-35,263504199203,부산광역시 해운대구 재송2로28번가길,1,,2635010400111530035012714,,부산광역시 해운대구 재송2로28번가길 1,612832,48052,,1,,129.130494538149,35.1919984542209
2853,MA010120220806026955,지에스25동구사루비아점,,G2,소매,G204,종합 소매,G20405,편의점,G47129,기타 음ㆍ식료품 위주 종합 소매업,26,부산광역시,26170,동구,26170600,수정5동,2617010200,수정동,2617010200105800002,1,대지,580,2.0,부산광역시 동구 수정동 580-2,261703125011,부산광역시 동구 망양로,793,,2617010200105800002003135,,부산광역시 동구 망양로 793,601816,48707,,1,,129.042454797969,35.133584818456
2893,MA010120220806022042,씨유덕천함양점,,G2,소매,G204,종합 소매,G20405,편의점,G47129,기타 음ㆍ식료품 위주 종합 소매업,26,부산광역시,26320,북구,26320561,덕천3동,2632010400,덕천동,2632010400104200047,1,대지,420,47.0,부산광역시 북구 덕천동 420-47,263204196350,부산광역시 북구 의성로115번길,74,,2632010400104200047005954,,부산광역시 북구 의성로115번길 74,616822,46574,,1,,129.014977850392,35.2111937489207
2895,MA010120220806021982,애터미부산센타,,G2,소매,G205,식료품 소매,G20508,건강보조식품 소매업,G47217,건강 보조식품 소매업,26,부산광역시,26260,동래구,26260545,명륜동,2626010700,명륜동,2626010700104500039,1,대지,450,39.0,부산광역시 동래구 명륜동 450-39,262602006006,부산광역시 동래구 충렬대로,211,,2626010700104500039001883,,부산광역시 동래구 충렬대로 211,607804,47738,,2,,129.082551971679,35.2025861025759
2903,MA010120220806044656,충남슈퍼,,G2,소매,G204,종합 소매,G20404,슈퍼마켓,G47129,기타 음ㆍ식료품 위주 종합 소매업,26,부산광역시,26500,수영구,26500730,수영동,2650010200,수영동,2650010200104880020,1,대지,488,20.0,부산광역시 수영구 수영동 488-20,265004214301,부산광역시 수영구 수영로741번길,107,,2650010200104880020012725,,부산광역시 수영구 수영로741번길 107,613832,48220,,,,129.11935471788,35.1723616553934
2905,MA010120220806038933,하나로푸드,,G2,소매,G204,종합 소매,G20404,슈퍼마켓,G47121,슈퍼마켓,26,부산광역시,26230,부산진구,26230740,개금1동,2623011100,개금동,2623011100105270220,1,대지,527,220.0,부산광역시 부산진구 개금동 527-220,262303006020,부산광역시 부산진구 엄광로,37,,2623011100105270220000002,,부산광역시 부산진구 엄광로 37,614814,47321,,2,,129.020159280194,35.1486025537423
2952,MA010120220806032844,매일반찬천국,,G2,소매,G205,식료품 소매,G20509,반찬/식료품 소매업,G47218,조리 반찬류 소매업,26,부산광역시,26500,수영구,26500740,망미1동,2650010100,망미동,2650010100104320002,1,대지,432,2.0,부산광역시 수영구 망미동 432-2,265004214153,부산광역시 수영구 망미배산로10번길,70,,2650010100104320002002007,,부산광역시 수영구 망미배산로10번길 70,613822,48204,,1,,129.106750547806,35.1770925652413
2981,MA010120220806029319,더까까주까,,G2,소매,G204,종합 소매,G20404,슈퍼마켓,G47216,"빵류, 과자류 및 당류 소매업",26,부산광역시,26230,부산진구,26230510,부전1동,2623010300,부전동,2623010300102610001,1,대지,261,1.0,부산광역시 부산진구 부전동 261-1,262304187399,부산광역시 부산진구 새싹로14번길,4,,2623010300102610001032243,,부산광역시 부산진구 새싹로14번길 4,614844,47254,,1,,129.058391034754,35.1593257108726
3042,MA010120220806119146,밀양슈퍼,,G2,소매,G204,종합 소매,G20404,슈퍼마켓,G47129,기타 음ㆍ식료품 위주 종합 소매업,26,부산광역시,26530,사상구,26530591,모라1동,2653010200,모라동,2653010200106510029,1,대지,651,29.0,부산광역시 사상구 모라동 651-29,265304217270,부산광역시 사상구 사상로509번길,16,,2653010200106510029019859,,부산광역시 사상구 사상로509번길 16,617819,46917,,,,128.987826166144,35.1902085464822
3046,MA010120220806119297,즐거운집반찬,,G2,소매,G205,식료품 소매,G20509,반찬/식료품 소매업,G47218,조리 반찬류 소매업,26,부산광역시,26350,해운대구,26350554,좌4동,2635010700,좌동,2635010700113980000,1,대지,1398,,부산광역시 해운대구 좌동 1398,263504199022,부산광역시 해운대구 대천로103번길,61,,2635010700113980000003370,엘지아파트,부산광역시 해운대구 대천로103번길 61,612768,48075,,,,129.173890750055,35.1806879264108
3053,MA010120220806118205,현대종합상사,,G2,소매,G205,식료품 소매,G20508,건강보조식품 소매업,G47217,건강 보조식품 소매업,26,부산광역시,26470,연제구,26470640,거제4동,2647010100,거제동,2647010100108150061,1,대지,815,61.0,부산광역시 연제구 거제동 815-61,264704211400,부산광역시 연제구 해맞이로105번길,4,,2647010100108150061024060,,부산광역시 연제구 해맞이로105번길 4,611805,47531,,1,,129.069553802847,35.1836463115411
3054,MA010120220806118703,방아쟁이떡방,,I2,음식,I210,기타 간이,I21002,떡/한과,C10711,떡류 제조업,26,부산광역시,26500,수영구,26500790,광안4동,2650010400,광안동,2650010400105660010,1,대지,566,10.0,부산광역시 수영구 광안동 566-10,265004214281,부산광역시 수영구 수영로603번길,8,,2650010400105660010006571,,부산광역시 수영구 수영로603번길 8,613809,48254,,1,,129.113201263301,35.1598440342623
3075,MA010120220806155126,일해어묵,,G2,소매,G205,식료품 소매,G20509,반찬/식료품 소매업,G47219,기타 식료품 소매업,26,부산광역시,26230,부산진구,26230740,개금1동,2623011100,개금동,2623011100101730004,1,대지,173,4.0,부산광역시 부산진구 개금동 173-4,262304187004,부산광역시 부산진구 가야공원로14번길,85,,2623011100101730002003040,,부산광역시 부산진구 가야공원로14번길 85,614813,47327,,,,129.024820359446,35.1518533185981
3084,MA010120220806155219,세번째푸드마을,,G2,소매,G205,식료품 소매,G20506,채소/과일 소매업,G47215,"채소, 과실 및 뿌리작물 소매업",26,부산광역시,26290,남구,26290700,문현3동,2629010900,문현동,2629010900112340000,1,대지,1234,,부산광역시 남구 문현동 1234,262903131002,부산광역시 남구 고동골로,29,,2629010900104260001015502,국제금융시티문현베스티움아파트,부산광역시 남구 고동골로 29,608043,48415,,1,,129.07048394609,35.1390102448798
3087,MA010120220806140996,진주상회,,G2,소매,G205,식료품 소매,G20503,정육점,G47212,육류 소매업,26,부산광역시,26140,서구,26140640,충무동,2614012000,충무동1가,2614012000100320019,1,대지,32,19.0,부산광역시 서구 충무동1가 32-19,261404178349,부산광역시 서구 충무대로268번길,5,,2614012000100320019013742,,부산광역시 서구 충무대로268번길 5,602011,49254,,,,129.024562174037,35.0944452955438
3105,MA010120220806169629,밤나무,,G2,소매,G205,식료품 소매,G20506,채소/과일 소매업,G47215,"채소, 과실 및 뿌리작물 소매업",26,부산광역시,26260,동래구,26260750,안락2동,2626010200,안락동,2626010200106030008,1,대지,603,8.0,부산광역시 동래구 안락동 603-8,262604190389,부산광역시 동래구 연안로81번길,91,,2626010200106030008014887,,부산광역시 동래구 연안로81번길 91,607830,47890,,1,,129.104137762162,35.1957660371641
3113,MA010120220806162944,아이스크림활인점화명,,G2,소매,G205,식료품 소매,G20507,아이스크림 할인점,G47216,"빵류, 과자류 및 당류 소매업",26,부산광역시,26320,북구,26320543,화명3동,2632010200,화명동,2632010200122880000,1,대지,2288,,부산광역시 북구 화명동 2288,263203132027,부산광역시 북구 화명신도시로,100,,2632010200122880000001946,코오롱하늘채2차아파트,부산광역시 북구 화명신도시로 100,616777,46526,,1,,129.012342412154,35.2315781575759
3128,MA010120220806162891,한양고기마루,,G2,소매,G205,식료품 소매,G20503,정육점,G47212,육류 소매업,26,부산광역시,26230,부산진구,26230670,당감1동,2623010900,당감동,2623010900102520016,1,대지,252,16.0,부산광역시 부산진구 당감동 252-16,262303129006,부산광역시 부산진구 당감로,14,,2623010900102520016000001,,부산광역시 부산진구 당감로 14,614817,47189,,1,,129.040074194139,35.162945695958
3150,MA010120220806162391,보틀리에,,I2,음식,I210,기타 간이,I21005,토스트/샌드위치/샐러드,G47221,음료 소매업,26,부산광역시,26440,강서구,26440545,명지2동,2644010400,명지동,2644010400132370014,1,대지,3237,14.0,부산광역시 강서구 명지동 3237-14,264403136045,부산광역시 강서구 명지오션시티4로,88,,2644010400132370014000001,,부산광역시 강서구 명지오션시티4로 88,618814,46765,,1,,128.903313418161,35.0811758521981
3166,MA010120220806159323,킹마트,,G2,소매,G204,종합 소매,G20404,슈퍼마켓,G47121,슈퍼마켓,26,부산광역시,26170,동구,26170570,수정2동,2617010200,수정동,2617010200108750001,1,대지,875,1.0,부산광역시 동구 수정동 875-1,261704181329,부산광역시 동구 수정중로11번길,5,,2617010200108760001021174,,부산광역시 동구 수정중로11번길 5,601819,48782,,,,129.043467394106,35.1295288288812
3169,MA010120220806160151,청솔유통,,G2,소매,G204,종합 소매,G20404,슈퍼마켓,G47121,슈퍼마켓,26,부산광역시,26500,수영구,26500780,광안3동,2650010400,광안동,2650010400110620005,1,대지,1062,5.0,부산광역시 수영구 광안동 1062-5,265004214346,부산광역시 수영구 연수로392번길,15,,2650010400110620005015536,,부산광역시 수영구 연수로392번길 15,613810,48242,,1,,129.111849637667,35.168599890426
3189,MA010120220806157669,동부산온천스파남탕매점,,G2,소매,G204,종합 소매,G20404,슈퍼마켓,G47129,기타 음ㆍ식료품 위주 종합 소매업,26,부산광역시,26710,기장군,26710253,장안읍,2671025328,장안읍,2671025328104540005,1,대지,454,5.0,부산광역시 기장군 장안읍 기룡리 454-5,267103140038,부산광역시 기장군 장안읍 장안로,48,,2671025328104540005000001,,부산광역시 기장군 장안읍 장안로 48,619951,46032,,,,129.253436254139,35.3437033370817
3194,MA010120220806185744,상진유통,,G2,소매,G204,종합 소매,G20404,슈퍼마켓,G47129,기타 음ㆍ식료품 위주 종합 소매업,26,부산광역시,26110,중구,26110510,중앙동,2611011000,중앙동7가,2611011000100200001,1,대지,20,1.0,부산광역시 중구 중앙동7가 20-1,261102000010,부산광역시 중구 중앙대로,2,,2611011000100200001000001,롯데백화점광복점,부산광역시 중구 중앙대로 2,600017,48944,,2,,129.036730232514,35.0983260672492
3204,MA010120220806238975,블루밍할인마트,,G2,소매,G204,종합 소매,G20404,슈퍼마켓,G47121,슈퍼마켓,26,부산광역시,26530,사상구,26530610,덕포2동,2653010300,덕포동,2653010300103860003,1,대지,386,3.0,부산광역시 사상구 덕포동 386-3,265304217233,부산광역시 사상구 사상로342번길,39,,2653010300103860003003700,덕포동벽산블루밍아파트,부산광역시 사상구 사상로342번길 39,617814,46945,,,,128.987262796311,35.175403212812
3243,MA010120220806268387,롯데떡방앗간,,I2,음식,I210,기타 간이,I21002,떡/한과,C10711,떡류 제조업,26,부산광역시,26380,사하구,26380520,괴정2동,2638010100,괴정동,2638010100103560001,1,대지,356,1.0,부산광역시 사하구 괴정동 356-1,263803006006,부산광역시 사하구 까치고개로,5,,2638010100103560001001345,제일빌딩,부산광역시 사하구 까치고개로 5,604807,49347,,1,,129.003230899868,35.1034213930759
3248,MA010120220806257677,다마트,,G2,소매,G204,종합 소매,G20404,슈퍼마켓,G47121,슈퍼마켓,26,부산광역시,26410,금정구,26410590,부곡3동,2641010900,부곡동,2641010900102250068,1,대지,225,68.0,부산광역시 금정구 부곡동 225-68,264104205389,부산광역시 금정구 중앙대로1685번길,30,,2641010900102250068013223,,부산광역시 금정구 중앙대로1685번길 30,609819,46277,,1,,129.090070301916,35.2351305923601
3249,MA010120220806262137,영도상회,,G2,소매,G205,식료품 소매,G20505,수산물 소매업,G47214,"신선, 냉동 및 기타 수산물 소매업",26,부산광역시,26110,중구,26110560,부평동,2611012400,부평동2가,2611012400100120009,1,대지,12,9.0,부산광역시 중구 부평동2가 12-9,261104175238,부산광역시 중구 중구로43번길,36,,2611012400100120009001738,,부산광역시 중구 중구로43번길 36,600806,48977,,1,,129.026004736253,35.1019147514774
3254,MA010120220806262497,수정이네,,G2,소매,G205,식료품 소매,G20504,건어물/젓갈 소매업,G47213,건어물 및 젓갈류 소매업,26,부산광역시,26710,기장군,26710250,기장읍,2671025028,기장읍,2671025028102030031,1,대지,203,31.0,부산광역시 기장군 기장읍 대변리 203-31,267104220163,부산광역시 기장군 기장읍 연화1길,208,21.0,2671025028102030031000001,,부산광역시 기장군 기장읍 연화1길 208-21,619904,46079,,1,,129.227804080472,35.2206067834157
3265,MA010120220806283438,아이마트센텀정육,,G2,소매,G205,식료품 소매,G20503,정육점,G47212,육류 소매업,26,부산광역시,26350,해운대구,26350650,재송1동,2635010400,재송동,2635010400109330031,1,대지,933,31.0,부산광역시 해운대구 재송동 933-31,263504199284,부산광역시 해운대구 해운대로76번길,16,,2635010400109330031000002,,부산광역시 해운대구 해운대로76번길 16,612051,48047,,,,129.119338646789,35.1904074860505
3303,MA010120220806281687,뉴킹할인마트,,G2,소매,G204,종합 소매,G20404,슈퍼마켓,G47129,기타 음ㆍ식료품 위주 종합 소매업,26,부산광역시,26380,사하구,26380562,하단2동,2638010300,하단동,2638010300105000043,1,대지,500,43.0,부산광역시 사하구 하단동 500-43,263804202156,부산광역시 사하구 낙동대로535번길,25,,2638010300105000043031287,,부산광역시 사하구 낙동대로535번길 25,604851,49307,,1,,128.963154490739,35.1111289372119
3316,MA010120220806279409,가람상회,,G2,소매,G205,식료품 소매,G20506,채소/과일 소매업,G47215,"채소, 과실 및 뿌리작물 소매업",26,부산광역시,26500,수영구,26500730,수영동,2650010200,수영동,2650010200102890003,1,대지,289,3.0,부산광역시 수영구 수영동 289-3,265004214350,부산광역시 수영구 연수로415번길,42,,2650010200102900000000578,,부산광역시 수영구 연수로415번길 42,613830,48228,,,,129.115758370162,35.1694653357226
3336,MA010120220806273577,감내떡방,,I2,음식,I210,기타 간이,I21002,떡/한과,C10711,떡류 제조업,26,부산광역시,26380,사하구,26380630,감천2동,2638010800,감천동,2638010800100130995,1,대지,13,995.0,부산광역시 사하구 감천동 13-995,263803006012,부산광역시 사하구 옥천로,64,1.0,2638010800100130995006498,,부산광역시 사하구 옥천로 64-1,604801,49367,,1,,129.008766071839,35.0924143685732
3345,MA010120220806277071,몽땅365,,G2,소매,G205,식료품 소매,G20506,채소/과일 소매업,G47215,"채소, 과실 및 뿌리작물 소매업",26,부산광역시,26350,해운대구,26350525,우3동,2635010500,우동,2635010500114320000,1,대지,1432,,부산광역시 해운대구 우동 1432,263503133043,부산광역시 해운대구 해운대해변로,163,,2635010500114320000007649,현대베네시티아파트,부산광역시 해운대구 해운대해변로 163,612869,48091,,1,,129.150748800901,35.158186196302
3413,MA010120220806304636,모아마트,,G2,소매,G204,종합 소매,G20404,슈퍼마켓,G47121,슈퍼마켓,26,부산광역시,26320,북구,26320561,덕천3동,2632010400,덕천동,2632010400101320077,1,대지,132,77.0,부산광역시 북구 덕천동 132-77,263203132021,부산광역시 북구 함박봉로,25,,2632010400101320077000001,,부산광역시 북구 함박봉로 25,616815,46601,,,,129.022324877243,35.2102666026157
3454,MA010120220806287649,삼천포해물,,G2,소매,G205,식료품 소매,G20505,수산물 소매업,G47214,"신선, 냉동 및 기타 수산물 소매업",26,부산광역시,26290,남구,26290580,용호2동,2629010700,용호동,2629010700104950001,1,대지,495,1.0,부산광역시 남구 용호동 495-1,262903131025,부산광역시 남구 용호로,179,,2629010700104950049010415,,부산광역시 남구 용호로 179,608092,48587,,,,129.111292295011,35.1163064046059
3468,MA010120220806314319,부부상회,,G2,소매,G205,식료품 소매,G20506,채소/과일 소매업,G47215,"채소, 과실 및 뿌리작물 소매업",26,부산광역시,26500,수영구,26500790,광안4동,2650010400,광안동,2650010400105650008,1,대지,565,8.0,부산광역시 수영구 광안동 565-8,265004214281,부산광역시 수영구 수영로603번길,12,,2650010400105650004010671,,부산광역시 수영구 수영로603번길 12,613809,48254,,,,129.112994217993,35.1599541029449
3469,MA010120220806314589,형제상회,,G2,소매,G205,식료품 소매,G20506,채소/과일 소매업,G47215,"채소, 과실 및 뿌리작물 소매업",26,부산광역시,26500,수영구,26500660,남천1동,2650010500,남천동,2650010500100260005,1,대지,26,5.0,부산광역시 수영구 남천동 26-5,265003138009,부산광역시 수영구 남천바다로,16,,2650010500100260005017660,세흥시장,부산광역시 수영구 남천바다로 16,613815,48314,,,,129.112345963859,35.1494228391559
3473,MA010120220806314449,명륜G정육점,,G2,소매,G205,식료품 소매,G20503,정육점,G47212,육류 소매업,26,부산광역시,26260,동래구,26260545,명륜동,2626010700,명륜동,2626010700100090002,1,대지,9,2.0,부산광역시 동래구 명륜동 9-2,262604190294,부산광역시 동래구 시실로24번길,5,,2626010700100090002000001,,부산광역시 동래구 시실로24번길 5,607802,47744,,1,,129.086426183701,35.2164236732222
3506,MA010120220806314379,나희상회,,G2,소매,G205,식료품 소매,G20506,채소/과일 소매업,G47215,"채소, 과실 및 뿌리작물 소매업",26,부산광역시,26530,사상구,26530600,덕포1동,2653010300,덕포동,2653010300104220006,1,대지,422,6.0,부산광역시 사상구 덕포동 422-6,265304217222,부산광역시 사상구 사상로293번길,17,,2653010300104220006017895,키드마트,부산광역시 사상구 사상로293번길 17,617816,46950,,,,128.981919980716,35.171137962438
3514,MA010120220806340993,항아리푸드,,G2,소매,G205,식료품 소매,G20504,건어물/젓갈 소매업,G47213,건어물 및 젓갈류 소매업,26,부산광역시,26500,수영구,26500660,남천1동,2650010500,남천동,2650010500105450002,1,대지,545,2.0,부산광역시 수영구 남천동 545-2,265002006014,부산광역시 수영구 황령대로,521,,2650010500105450002017618,메가마트남천점,부산광역시 수영구 황령대로 521,613819,48313,,,,129.111017560527,35.1372752885889
3550,MA010120220806337558,대합유통,,G2,소매,G205,식료품 소매,G20509,반찬/식료품 소매업,G47218,조리 반찬류 소매업,26,부산광역시,26230,부산진구,26230510,부전1동,2623010300,부전동,2623010300103410019,1,대지,341,19.0,부산광역시 부산진구 부전동 341-19,262304187695,부산광역시 부산진구 중앙대로775번길,27,,2623010300103410019016601,,부산광역시 부산진구 중앙대로775번길 27,614843,47251,,,,129.06113180082,35.1624566067734
3574,MA010120220806338348,소희네집젓갈,,G2,소매,G205,식료품 소매,G20504,건어물/젓갈 소매업,G47213,건어물 및 젓갈류 소매업,26,부산광역시,26440,강서구,26440580,가덕도동,2644012200,대항동,2644012200102630005,1,대지,263,5.0,부산광역시 강서구 대항동 263-5,264403136001,부산광역시 강서구 가덕해안로,1206,,2644012200102630005000001,,부산광역시 강서구 가덕해안로 1206,618450,46771,,1,,128.828280980955,35.0123015069779
3588,MA010120220806360774,시티마트,,G2,소매,G204,종합 소매,G20404,슈퍼마켓,G47121,슈퍼마켓,26,부산광역시,26530,사상구,26530670,학장동,2653010700,학장동,2653010700101670003,1,대지,167,3.0,부산광역시 사상구 학장동 167-3,265304217380,부산광역시 사상구 학감대로49번길,62,,2653010700101670003002137,학장대림아파트,부산광역시 사상구 학감대로49번길 62,617774,47054,,,,128.992265364368,35.1353402201369
3598,MA010120220806364113,신평상회,,G2,소매,G205,식료품 소매,G20505,수산물 소매업,G47214,"신선, 냉동 및 기타 수산물 소매업",26,부산광역시,26230,부산진구,26230510,부전1동,2623010300,부전동,2623010300103470073,1,대지,347,73.0,부산광역시 부산진구 부전동 347-73,262304187399,부산광역시 부산진구 새싹로14번길,63,,2623010300103470073038620,,부산광역시 부산진구 새싹로14번길 63,614843,47252,,,,129.059913186292,35.161592924804
3608,MA010120220806360712,빌디스타,,G2,소매,G205,식료품 소매,G20509,반찬/식료품 소매업,G47219,기타 식료품 소매업,26,부산광역시,26140,서구,26140510,동대신1동,2614010100,동대신동1가,2614010100101240002,1,대지,124,2.0,부산광역시 서구 동대신동1가 124-2,261403125009,부산광역시 서구 대영로,78,,2614010100101130001000842,동대맨션,부산광역시 서구 대영로 78,602808,49218,,2,,129.019726100215,35.1103417623474
3637,MA010120220806359798,바오바브,,G2,소매,G204,종합 소매,G20404,슈퍼마켓,G47129,기타 음ㆍ식료품 위주 종합 소매업,26,부산광역시,26290,남구,26290550,대연5동,2629010600,대연동,2629010600117420010,1,대지,1742,10.0,부산광역시 남구 대연동 1742-10,262904193141,부산광역시 남구 수영로219번길,12,1.0,2629010600117420010006878,,부산광역시 남구 수영로219번길 12-1,608807,48445,,1,,129.090653207778,35.135747635148
3652,MA010120220806356724,아이스미츄,,G2,소매,G204,종합 소매,G20404,슈퍼마켓,G47216,"빵류, 과자류 및 당류 소매업",26,부산광역시,26230,부산진구,26230760,개금3동,2623011100,개금동,2623011100100530003,1,대지,53,3.0,부산광역시 부산진구 개금동 53-3,262303129014,부산광역시 부산진구 백양관문로,3,,2623011100100530003015438,개금주공상가,부산광역시 부산진구 백양관문로 3,614810,47171,,,,129.031061597844,35.1593991306398
3656,MA010120220806356341,베스트마트,,G2,소매,G204,종합 소매,G20404,슈퍼마켓,G47121,슈퍼마켓,26,부산광역시,26350,해운대구,26350520,우2동,2635010500,우동,2635010500110080005,1,대지,1008,5.0,부산광역시 해운대구 우동 1008-5,263502006010,부산광역시 해운대구 해운대로,428,,2635010500110080005003521,동부올림픽타운,부산광역시 해운대구 해운대로 428,612745,48089,,,,129.139861636856,35.1668973294386
3671,MA010120220806357644,바다횟집,,G2,소매,G205,식료품 소매,G20505,수산물 소매업,G47214,"신선, 냉동 및 기타 수산물 소매업",26,부산광역시,26140,서구,26140530,동대신3동,2614010300,동대신동3가,2614010300104580002,1,대지,458,2.0,부산광역시 서구 동대신동3가 458-2,261404178121,부산광역시 서구 대영로85번길,63,,2614010300104580002004036,,부산광역시 서구 대영로85번길 63,602813,49212,,1,,129.019064857901,35.1136194148895
3675,MA010120220806357888,막내딸집건어물동래래미안,,G2,소매,G205,식료품 소매,G20504,건어물/젓갈 소매업,G47213,건어물 및 젓갈류 소매업,26,부산광역시,26260,동래구,26260560,온천2동,2626010800,온천동,2626010800107820033,1,대지,782,33.0,부산광역시 동래구 온천동 782-33,262604190461,부산광역시 동래구 중앙대로1367번길,78,3.0,2626010800107820033000627,,부산광역시 동래구 중앙대로1367번길 78-3,607835,47728,,1,,129.073718094539,35.2105879215537
3691,MA010120220806356066,장르는건어물,,G2,소매,G205,식료품 소매,G20504,건어물/젓갈 소매업,G47213,건어물 및 젓갈류 소매업,26,부산광역시,26440,강서구,26440535,명지1동,2644010400,명지동,2644010400135940000,1,대지,3594,,부산광역시 강서구 명지동 3594,264403350867,부산광역시 강서구 명지국제7로,37,,2644010400135940000000001,더샵명지퍼스트월드2단지,부산광역시 강서구 명지국제7로 37,618200,46726,,,,128.905512248145,35.0975652312608
3698,MA010120220806353472,온그린,,G2,소매,G212,기타 생활용품 소매,G21202,주방/가정용품 소매업,G47221,음료 소매업,26,부산광역시,26140,서구,26140660,남부민2동,2614012300,남부민동,2614012300100940197,1,대지,94,197.0,부산광역시 서구 남부민동 94-197,261403126022,부산광역시 서구 해돋이로,83,,2614012300100940197015182,,부산광역시 서구 해돋이로 83,602802,49261,,1,,129.021214707742,35.0863338419679
3699,MA010120220806353591,함가네반찬,,G2,소매,G205,식료품 소매,G20509,반찬/식료품 소매업,G47218,조리 반찬류 소매업,26,부산광역시,26350,해운대구,26350610,반송1동,2635010100,반송동,2635010100102750036,1,대지,275,36.0,부산광역시 해운대구 반송동 275-36,263503133006,부산광역시 해운대구 반송순환로,225,1.0,2635010100102750036012241,왕족발불닭발,부산광역시 해운대구 반송순환로 225-1,612806,48014,,1,,129.15009778357,35.2296175449881
3706,MA010120220806354335,해랑,,G2,소매,G204,종합 소매,G20404,슈퍼마켓,G47129,기타 음ㆍ식료품 위주 종합 소매업,26,부산광역시,26710,기장군,26710253,장안읍,2671025332,장안읍,2671025332101460005,1,대지,146,5.0,부산광역시 기장군 장안읍 임랑리 146-5,267104220234,부산광역시 기장군 장안읍 임랑해안길,17,1.0,2671025332101460005005809,임랑펜션,부산광역시 기장군 장안읍 임랑해안길 17-1,619951,46038,,,,129.262417031502,35.3163892351272
3722,MA010120220806377570,빅세일마트,,G2,소매,G204,종합 소매,G20404,슈퍼마켓,G47121,슈퍼마켓,26,부산광역시,26410,금정구,26410670,남산동,2641010400,남산동,2641010400104820016,1,대지,482,16.0,부산광역시 금정구 남산동 482-16,264103130022,부산광역시 금정구 금강로,645,,2641010400104820016034346,,부산광역시 금정구 금강로 645,609813,46225,,,,129.088492915034,35.2650704698582
3743,MA010120220806377484,대연식재료,,G2,소매,G204,종합 소매,G20404,슈퍼마켓,G47129,기타 음ㆍ식료품 위주 종합 소매업,26,부산광역시,26290,남구,26290510,대연1동,2629010600,대연동,2629010600117280004,1,대지,1728,4.0,부산광역시 남구 대연동 1728-4,262904193303,부산광역시 남구 유엔로169번길,92,,2629010600117280004006836,,부산광역시 남구 유엔로169번길 92,608811,48503,,,,129.094750026138,35.1344036767413
3778,MA010120220806372380,풍년떡방앗간,,I2,음식,I210,기타 간이,I21002,떡/한과,C10711,떡류 제조업,26,부산광역시,26290,남구,26290680,문현1동,2629010900,문현동,2629010900100540107,1,대지,54,107.0,부산광역시 남구 문현동 54-107,262904193425,부산광역시 남구 진남로232번길,48,,2629010900100540107013650,,부산광역시 남구 진남로232번길 48,608820,48422,,1,,129.077830896442,35.1461111921057
3829,MA010120220806370165,대명여고구내매점,,G2,소매,G204,종합 소매,G20404,슈퍼마켓,G47129,기타 음ㆍ식료품 위주 종합 소매업,26,부산광역시,26260,동래구,26260762,명장2동,2626010100,명장동,2626010100105330000,1,대지,533,,부산광역시 동래구 명장동 533,262603130028,부산광역시 동래구 시실로,135,,2626010100105330000000148,대명여자고등학교,부산광역시 동래구 시실로 135,607807,47758,,,,129.096231622491,35.2121168227771
3844,MA010120220806366642,한끼반찬,,G2,소매,G205,식료품 소매,G20509,반찬/식료품 소매업,G47218,조리 반찬류 소매업,26,부산광역시,26290,남구,26290680,문현1동,2629010900,문현동,2629010900100410000,1,대지,41,,부산광역시 남구 문현동 41,262904193015,부산광역시 남구 고동골로78번길,23,,2629010900100410000016815,한양아파트,부산광역시 남구 고동골로78번길 23,608762,48409,,1,,129.073166263155,35.144394879356
3912,MA010120220806395164,아리각단,,G2,소매,G204,종합 소매,G20404,슈퍼마켓,G47121,슈퍼마켓,26,부산광역시,26710,기장군,26710250,기장읍,2671025024,기장읍,2671025024101750000,1,대지,175,,부산광역시 기장군 기장읍 죽성리 175,267103140049,부산광역시 기장군 기장읍 죽성로,343,,2671025024101750000015304,,부산광역시 기장군 기장읍 죽성로 343,619906,46078,,,,129.246640801877,35.2392166716387
3947,MA010120220806388525,충렬고등학교구내매점,,G2,소매,G204,종합 소매,G20404,슈퍼마켓,G47129,기타 음ㆍ식료품 위주 종합 소매업,26,부산광역시,26260,동래구,26260761,명장1동,2626010100,명장동,2626010100101510005,1,대지,151,5.0,부산광역시 동래구 명장동 151-5,262604190165,부산광역시 동래구 명장로106번길,26,,2626010100101510005023725,충렬고등학교,부산광역시 동래구 명장로106번길 26,607810,47776,,,,129.109593084294,35.2028731393293
3996,MA010120220806388453,참좋은떡집,,I2,음식,I210,기타 간이,I21002,떡/한과,C10711,떡류 제조업,26,부산광역시,26500,수영구,26500740,망미1동,2650010100,망미동,2650010100104510032,1,대지,451,32.0,부산광역시 수영구 망미동 451-32,265004006055,부산광역시 수영구 과정로41번길,40,,2650010100104510032000248,,부산광역시 수영구 과정로41번길 40,613823,48209,,1,,129.105331457566,35.1752576846358
3997,MA010120220806392137,철마한우정육점,,G2,소매,G205,식료품 소매,G20503,정육점,G47212,육류 소매업,26,부산광역시,26710,기장군,26710256,정관읍,2671025627,정관읍,2671025627107380004,1,대지,738,4.0,부산광역시 기장군 정관읍 모전리 738-4,267103140047,부산광역시 기장군 정관읍 정관로,389,,2671032027107380004000001,,부산광역시 기장군 정관읍 정관로 389,619962,46008,,1,,129.165719146485,35.3347022753319
3998,MA010120220806392147,경성푸드,,G2,소매,G205,식료품 소매,G20509,반찬/식료품 소매업,G47219,기타 식료품 소매업,26,부산광역시,26290,남구,26290530,대연3동,2629010600,대연동,2629010600103140058,1,대지,314,58.0,부산광역시 남구 대연동 314-58,262904193151,부산광역시 남구 수영로293번길,30,5.0,2629010600103140058000797,함지박,부산광역시 남구 수영로293번길 30-5,608806,48434,,1,,129.097803228699,35.1378824699544
4009,MA010120220806385209,코끼리매점,,G2,소매,G204,종합 소매,G20404,슈퍼마켓,G47129,기타 음ㆍ식료품 위주 종합 소매업,26,부산광역시,26350,해운대구,26350530,중1동,2635010600,중동,2635010600113780018,1,대지,1378,18.0,부산광역시 해운대구 중동 1378-18,263503133041,부산광역시 해운대구 중동2로,16,,2635010600113780018026804,해운대온천센터,부산광역시 해운대구 중동2로 16,612847,48096,,5,,129.164576369486,35.163444323083
4013,MA010120220806384889,영남상회,,G2,소매,G205,식료품 소매,G20506,채소/과일 소매업,G47215,"채소, 과실 및 뿌리작물 소매업",26,부산광역시,26470,연제구,26470630,거제3동,2647010100,거제동,2647010100104860006,1,대지,486,6.0,부산광역시 연제구 거제동 486-6,264703006041,부산광역시 연제구 거제천로,79,,2647010100104860002007670,,부산광역시 연제구 거제천로 79,611804,47544,,,,129.072633343351,35.1815458862811
4037,MA010120220806389318,두배로마트,,G2,소매,G204,종합 소매,G20404,슈퍼마켓,G47121,슈퍼마켓,26,부산광역시,26320,북구,26320572,만덕2동,2632010300,만덕동,2632010300108350002,1,대지,835,2.0,부산광역시 북구 만덕동 835-2,263204196122,부산광역시 북구 덕천로276번길,32,16.0,2632010300108350002017572,,부산광역시 북구 덕천로276번길 32-16,616827,46611,,,,129.033249809286,35.2082899635241
4074,MA010120220806381216,떡공방형제,,I2,음식,I210,기타 간이,I21002,떡/한과,C10711,떡류 제조업,26,부산광역시,26530,사상구,26530580,삼락동,2653010100,삼락동,2653010100103500023,1,대지,350,23.0,부산광역시 사상구 삼락동 350-23,265304217078,부산광역시 사상구 낙동대로1420번길,62,,2653010100103500023000001,,부산광역시 사상구 낙동대로1420번길 62,617825,46906,,,,128.981176743415,35.1860260434094
4093,MA010120220806412898,와인스페이스,,G2,소매,G206,음료 소매,G20602,주류 소매업,G47221,음료 소매업,26,부산광역시,26440,강서구,26440520,대저2동,2644010200,대저2동,2644010200161830003,1,대지,6183,3.0,부산광역시 강서구 대저2동 6183-3,264403136003,부산광역시 강서구 공항로,261,,2644010200161830003000001,,부산광역시 강서구 공항로 261,618812,46723,,2,,128.944225303537,35.1324339051603
4103,MA010120220806409191,서른,,G2,소매,G204,종합 소매,G20404,슈퍼마켓,G47129,기타 음ㆍ식료품 위주 종합 소매업,26,부산광역시,26230,부산진구,26230510,부전1동,2623010500,범전동,2623010500100440025,1,대지,44,25.0,부산광역시 부산진구 범전동 44-25,262304187360,부산광역시 부산진구 범전로32번길,39,1.0,2623010500100440025000001,,부산광역시 부산진구 범전로32번길 39-1,614842,47203,,,,129.062919824684,35.1665873302297
4111,MA010120220806410196,원유통,,G2,소매,G204,종합 소매,G20404,슈퍼마켓,G47129,기타 음ㆍ식료품 위주 종합 소매업,26,부산광역시,26380,사하구,26380601,다대1동,2638010600,다대동,2638010600109540018,1,대지,954,18.0,부산광역시 사하구 다대동 954-18,263803134021,부산광역시 사하구 윤공단로,24,,2638010600109540018027581,,부산광역시 사하구 윤공단로 24,604825,49494,,1,,128.967951946583,35.0548155890778
4188,MA010120220806401538,뚜레쥬르대청로점,,I2,음식,I210,기타 간이,I21001,빵/도넛,G47216,"빵류, 과자류 및 당류 소매업",26,부산광역시,26110,중구,26110545,보수동,2611012000,보수동1가,2611012000101440004,1,대지,144,4.0,부산광역시 중구 보수동1가 144-4,261103125010,부산광역시 중구 대청로,71,,2611012000101440004001404,,부산광역시 중구 대청로 71,600803,48967,,1,,129.027645415247,35.1032980309187
4198,MA010120220806406084,아이스크림할인점비치점,,G2,소매,G204,종합 소매,G20404,슈퍼마켓,G47129,기타 음ㆍ식료품 위주 종합 소매업,26,부산광역시,26500,수영구,26500800,민락동,2650010300,민락동,2650010300101130021,1,대지,113,21.0,부산광역시 수영구 민락동 113-21,265004214077,부산광역시 수영구 광안해변로312번길,11,,2650010300101130021005363,진로비치아파트,부산광역시 수영구 광안해변로312번길 11,613769,48282,,1,,129.127938422273,35.1563996385254
4200,MA010120220806401190,핑클럽,,G2,소매,G205,식료품 소매,G20508,건강보조식품 소매업,G47217,건강 보조식품 소매업,26,부산광역시,26290,남구,26290550,대연5동,2629010600,대연동,2629010600117420009,1,대지,1742,9.0,부산광역시 남구 대연동 1742-9,262904193141,부산광역시 남구 수영로219번길,16,,2629010600117420009029526,,부산광역시 남구 수영로219번길 16,608807,48445,,1,,129.090589542207,35.1359104587209
4215,MA010120220806404176,자연수산,,G2,소매,G205,식료품 소매,G20505,수산물 소매업,G47214,"신선, 냉동 및 기타 수산물 소매업",26,부산광역시,26320,북구,26320510,구포1동,2632010500,구포동,2632010500101450008,1,대지,145,8.0,부산광역시 북구 구포동 145-8,263202006002,부산광역시 북구 낙동대로,1778,,2632010500101450008011129,,부산광역시 북구 낙동대로 1778,616800,46581,,1,,129.003897954406,35.2095734847681
4237,MA010120220806400524,대원글로벌유통,,G2,소매,G204,종합 소매,G20404,슈퍼마켓,G47129,기타 음ㆍ식료품 위주 종합 소매업,26,부산광역시,26260,동래구,26260580,사직1동,2626010900,사직동,2626010900100490027,1,대지,49,27.0,부산광역시 동래구 사직동 49-27,262604190235,부산광역시 동래구 사직북로28번길,41,,2626010900100490027008814,,부산광역시 동래구 사직북로28번길 41,607814,47856,,,,129.061954694275,35.1995685789733
4300,MA010120220806426040,알리바바,,G2,소매,G204,종합 소매,G20404,슈퍼마켓,G47216,"빵류, 과자류 및 당류 소매업",26,부산광역시,26350,해운대구,26350580,반여2동,2635010300,반여동,2635010300112910529,1,대지,1291,529.0,부산광역시 해운대구 반여동 1291-529,263503133035,부산광역시 해운대구 재반로,214,2.0,2635010300112910529002296,,부산광역시 해운대구 재반로 214-2,612813,48027,,,,129.131093592796,35.1964006069067
4314,MA010120220806428524,수진상회,,G2,소매,G204,종합 소매,G20404,슈퍼마켓,G47129,기타 음ㆍ식료품 위주 종합 소매업,26,부산광역시,26260,동래구,26260520,복산동,2626010500,복천동,2626010500102290028,1,대지,229,28.0,부산광역시 동래구 복천동 229-28,262604190097,부산광역시 동래구 동래시장길,14,,2626010500102290029016298,동래시장,부산광역시 동래구 동래시장길 14,607020,47810,,1,,129.085961867513,35.203826518793
4331,MA010120220806421483,오디팜,,G2,소매,G205,식료품 소매,G20506,채소/과일 소매업,G47215,"채소, 과실 및 뿌리작물 소매업",26,부산광역시,26200,영도구,26200650,동삼1동,2620012100,동삼동,2620012100105700004,1,대지,570,4.0,부산광역시 영도구 동삼동 570-4,262003128022,부산광역시 영도구 중리남로,41,1.0,2620012100105700004014491,,부산광역시 영도구 중리남로 41-1,606809,49123,,1,,129.068821315286,35.0705185999706
4346,MA010120220806422955,백석익투스엄마의손,,G2,소매,G205,식료품 소매,G20509,반찬/식료품 소매업,G47218,조리 반찬류 소매업,26,부산광역시,26350,해운대구,26350650,재송1동,2635010400,재송동,2635010400112000000,1,대지,1200,,부산광역시 해운대구 재송동 1200,263503133020,부산광역시 해운대구 센텀중앙로,145,,2635010400112000000003828,더샵센텀파크1차아파트,부산광역시 해운대구 센텀중앙로 145,612712,48050,,,,129.123619904461,35.1767749992096
4363,MA010120220806420528,다올마트,,G2,소매,G204,종합 소매,G20404,슈퍼마켓,G47129,기타 음ㆍ식료품 위주 종합 소매업,26,부산광역시,26500,수영구,26500740,망미1동,2650010100,망미동,2650010100109370105,1,대지,937,105.0,부산광역시 수영구 망미동 937-105,265004214157,부산광역시 수영구 망미배산로36번길,117,,2650010100109370105006024,,부산광역시 수영구 망미배산로36번길 117,613823,48202,,1,,129.103710609913,35.1796081262332
4396,MA010120220806419643,행복마트,,G2,소매,G204,종합 소매,G20404,슈퍼마켓,G47121,슈퍼마켓,26,부산광역시,26200,영도구,26200660,동삼2동,2620012100,동삼동,2620012100111800000,1,대지,1180,,부산광역시 영도구 동삼동 1180,262003352593,부산광역시 영도구 동삼오션로,30,,2620012100111800000000001,,부산광역시 영도구 동삼오션로 30,606082,49128,,1,,129.08384847832,35.0685103246613
4432,MA010120220806413897,신암수산,,G2,소매,G205,식료품 소매,G20505,수산물 소매업,G47214,"신선, 냉동 및 기타 수산물 소매업",26,부산광역시,26710,기장군,26710250,기장읍,2671025026,기장읍,2671025026100720001,1,대지,72,1.0,부산광역시 기장군 기장읍 대라리 72-1,267104220197,부산광역시 기장군 기장읍 읍내로104번길,16,,2671025026100720001002426,기장시장,부산광역시 기장군 기장읍 읍내로104번길 16,619903,46066,,,,129.214890760004,35.2437128640563
4433,MA010120220806413913,농산물1번마트과일,,G2,소매,G205,식료품 소매,G20506,채소/과일 소매업,G47215,"채소, 과실 및 뿌리작물 소매업",26,부산광역시,26170,동구,26170570,수정2동,2617010200,수정동,2617010200108120010,1,대지,812,10.0,부산광역시 동구 수정동 812-10,261703127029,부산광역시 동구 수정중로,12,,2617010200108120010022190,,부산광역시 동구 수정중로 12,601818,48782,,,,129.044038453167,35.1295689807545
4438,MA010120220806414070,영남상회,,G2,소매,G205,식료품 소매,G20506,채소/과일 소매업,G47215,"채소, 과실 및 뿌리작물 소매업",26,부산광역시,26470,연제구,26470700,연산6동,2647010200,연산동,2647010200106570004,1,대지,657,4.0,부산광역시 연제구 연산동 657-4,264704211335,부산광역시 연제구 월드컵대로58번길,32,,2647010200106570004005059,,부산광역시 연제구 월드컵대로58번길 32,611838,47590,,,,129.086377663297,35.1797918754497
4454,MA010120220806443987,자갈치수산,,G2,소매,G205,식료품 소매,G20505,수산물 소매업,G47214,"신선, 냉동 및 기타 수산물 소매업",26,부산광역시,26410,금정구,26410530,서3동,2641011000,서동,2641011000101740007,1,대지,174,7.0,부산광역시 금정구 서동 174-7,264104205269,부산광역시 금정구 서동시장뒷길,18,,2641011000101740007021902,,부산광역시 금정구 서동시장뒷길 18,609848,46320,,1,,129.102639040926,35.2156821841674
4475,MA010120220806445426,동네할인마트,,G2,소매,G205,식료품 소매,G20509,반찬/식료품 소매업,G47219,기타 식료품 소매업,26,부산광역시,26230,부산진구,26230670,당감1동,2623010900,당감동,2623010900102690007,1,대지,269,7.0,부산광역시 부산진구 당감동 269-7,262304187135,부산광역시 부산진구 당감로34번길,16,,2623010900102690007053654,,부산광역시 부산진구 당감로34번길 16,614817,47181,,1,,129.040207817629,35.1648194465822
4489,MA010120220806442431,정미떡집,,I2,음식,I210,기타 간이,I21002,떡/한과,C10711,떡류 제조업,26,부산광역시,26260,동래구,26260510,수민동,2626010600,수안동,2626010600104220001,1,대지,422,1.0,부산광역시 동래구 수안동 422-1,262604190507,부산광역시 동래구 충렬대로249번길,31,,2626010600104220001015549,,부산광역시 동래구 충렬대로249번길 31,607824,47813,,,,129.086550678384,35.2026854940073
4510,MA010120220806438281,행복마트,,G2,소매,G204,종합 소매,G20404,슈퍼마켓,G47121,슈퍼마켓,26,부산광역시,26410,금정구,26410670,남산동,2641010400,남산동,2641010400101010011,1,대지,101,11.0,부산광역시 금정구 남산동 101-11,264103135013,부산광역시 금정구 남산로,18,,2641010400101010011002555,남산홈마트,부산광역시 금정구 남산로 18,609811,46220,,,,129.090334703007,35.2671901415249
4518,MA010120220806439030,연산중국식품점,,G2,소매,G205,식료품 소매,G20509,반찬/식료품 소매업,G47219,기타 식료품 소매업,26,부산광역시,26470,연제구,26470660,연산2동,2647010200,연산동,2647010200116430012,1,대지,1643,12.0,부산광역시 연제구 연산동 1643-12,264704211348,부산광역시 연제구 중앙대로1038번길,50,,2647010200116430012010283,,부산광역시 연제구 중앙대로1038번길 50,611829,47600,,,,129.079829973522,35.1794628313168
4519,MA010120220806442758,동부산식품유통,,G2,소매,G205,식료품 소매,G20509,반찬/식료품 소매업,G47219,기타 식료품 소매업,26,부산광역시,26410,금정구,26410555,금사회동동,2641011200,회동동,2641011200101730013,1,대지,173,13.0,부산광역시 금정구 회동동 173-13,264104205464,부산광역시 금정구 회천로25번길,23,,2641011200101730013017264,,부산광역시 금정구 회천로25번길 23,609845,46261,,,,129.114460313174,35.2271476279065
4520,MA010120220806438720,빙빙빙아이스크림할인점,,G2,소매,G204,종합 소매,G20404,슈퍼마켓,G47216,"빵류, 과자류 및 당류 소매업",26,부산광역시,26350,해운대구,26350650,재송1동,2635010400,재송동,2635010400110760001,1,대지,1076,1.0,부산광역시 해운대구 재송동 1076-1,263504199193,부산광역시 해운대구 재송1로26번길,3,,2635010400110760001017351,,부산광역시 해운대구 재송1로26번길 3,612831,48055,,1,,129.122319999292,35.1876306800456
4532,MA010120220806440122,구내매점,,G2,소매,G204,종합 소매,G20404,슈퍼마켓,G47129,기타 음ㆍ식료품 위주 종합 소매업,26,부산광역시,26410,금정구,26410600,장전1동,2641010800,장전동,2641010800106570013,1,대지,657,13.0,부산광역시 금정구 장전동 657-13,264103135038,부산광역시 금정구 수림로,92,,2641010800100880008000001,대진전자통신고등학교,부산광역시 금정구 수림로 92,609725,46247,,,,129.081827643572,35.2415232078943
4557,MA010120220806434221,새벽로장터,,G2,소매,G205,식료품 소매,G20506,채소/과일 소매업,G47215,"채소, 과실 및 뿌리작물 소매업",26,부산광역시,26470,연제구,26470680,연산4동,2647010200,연산동,2647010200105850009,1,대지,585,9.0,부산광역시 연제구 연산동 585-9,264703137015,부산광역시 연제구 세병로,11,,2647010200105850009006146,,부산광역시 연제구 세병로 11,611820,47519,,,,129.084233294102,35.189446905122
4564,MA010120220806434262,여차리,,G2,소매,G205,식료품 소매,G20504,건어물/젓갈 소매업,G47213,건어물 및 젓갈류 소매업,26,부산광역시,26380,사하구,26380601,다대1동,2638010600,다대동,2638010600108200037,1,대지,820,37.0,부산광역시 사하구 다대동 820-37,263804202172,부산광역시 사하구 다대동로8번길,57,,2638010600107980000002608,,부산광역시 사하구 다대동로8번길 57,604825,49522,,,,128.972358926775,35.05668233165
4601,MA010120220806431525,커피팜로스팅하우스,,G2,소매,G205,식료품 소매,G20509,반찬/식료품 소매업,G47219,기타 식료품 소매업,26,부산광역시,26380,사하구,26380550,당리동,2638010200,당리동,2638010200103360003,1,대지,336,3.0,부산광역시 사하구 당리동 336-3,263803134007,부산광역시 사하구 다대로,3,,2638010200103360003004011,,부산광역시 사하구 다대로 3,604830,49398,,7,,128.977040296484,35.1017874043047
4608,MA010120220806429636,청명,,G2,소매,G205,식료품 소매,G20508,건강보조식품 소매업,G47217,건강 보조식품 소매업,26,부산광역시,26350,해운대구,26350650,재송1동,2635010400,재송동,2635010400111250002,1,대지,1125,2.0,부산광역시 해운대구 재송동 1125-2,263503133035,부산광역시 해운대구 재반로,96,17.0,2635010400111250002012722,,부산광역시 해운대구 재반로 96-17,612833,48053,,,,129.126122150968,35.1870635702054
4609,MA010120220806429900,아이스크림할인마트,,G2,소매,G205,식료품 소매,G20509,반찬/식료품 소매업,G47216,"빵류, 과자류 및 당류 소매업",26,부산광역시,26260,동래구,26260600,사직3동,2626010900,사직동,2626010900101380075,1,대지,138,75.0,부산광역시 동래구 사직동 138-75,262603130017,부산광역시 동래구 여고북로,106,1.0,2626010900101380075007290,,부산광역시 동래구 여고북로 106-1,607818,47829,,,,129.071010657626,35.2009580776863
4622,MA010120220806429989,찬들로,,G2,소매,G205,식료품 소매,G20509,반찬/식료품 소매업,G47218,조리 반찬류 소매업,26,부산광역시,26230,부산진구,26230540,연지동,2623010600,연지동,2623010600103380251,1,대지,338,251.0,부산광역시 부산진구 연지동 338-251,262304187228,부산광역시 부산진구 동평로183번길,98,,2623010600103380251025414,,부산광역시 부산진구 동평로183번길 98,614860,47109,,2,,129.048929386869,35.1712703204032
4636,MA010120220806431717,우신축산,,G2,소매,G205,식료품 소매,G20503,정육점,G47212,육류 소매업,26,부산광역시,26290,남구,26290680,문현1동,2629010900,문현동,2629010900101020003,1,대지,102,3.0,부산광역시 남구 문현동 102-3,262904193015,부산광역시 남구 고동골로78번길,83,,2629010900101020003016806,,부산광역시 남구 고동골로78번길 83,608821,48409,,1,,129.076147404309,35.1441070364248
4686,MA010120220806459715,낚시놀이터,,G2,소매,G204,종합 소매,G20404,슈퍼마켓,G47129,기타 음ㆍ식료품 위주 종합 소매업,26,부산광역시,26110,중구,26110570,광복동,2611012800,신창동2가,2611012800100140008,1,대지,14,8.0,부산광역시 중구 신창동2가 14-8,261104175010,부산광역시 중구 광복로39번길,22,,2611012800100140008005412,,부산광역시 중구 광복로39번길 22,600062,48947,,,,129.029451018138,35.1012184991344
4725,MA010120220806461556,두부나라,,G2,소매,G204,종합 소매,G20404,슈퍼마켓,G47129,기타 음ㆍ식료품 위주 종합 소매업,26,부산광역시,26410,금정구,26410600,장전1동,2641010800,장전동,2641010800102320057,1,대지,232,57.0,부산광역시 금정구 장전동 232-57,264104205095,부산광역시 금정구 금정로119번길,20,,2641010800102320057026612,,부산광역시 금정구 금정로119번길 20,609837,46285,,2,,129.086494757671,35.2355773752545
4731,MA010120220806450475,아이스나라,,G2,소매,G205,식료품 소매,G20509,반찬/식료품 소매업,G47216,"빵류, 과자류 및 당류 소매업",26,부산광역시,26320,북구,26320571,만덕1동,2632010300,만덕동,2632010300108240035,1,대지,824,35.0,부산광역시 북구 만덕동 824-35,263204196155,부산광역시 북구 만덕1로10번길,8,,2632010300108240035000001,,부산광역시 북구 만덕1로10번길 8,616830,46557,,1,,129.036172218852,35.21442146052
4742,MA010120220806451074,떡잎공방,,I2,음식,I210,기타 간이,I21002,떡/한과,G47218,조리 반찬류 소매업,26,부산광역시,26500,수영구,26500730,수영동,2650010200,수영동,2650010200104650019,1,대지,465,19.0,부산광역시 수영구 수영동 465-19,265004214334,부산광역시 수영구 연수로357번길,17,10.0,2650010200104650019018684,,부산광역시 수영구 연수로357번길 17-10,613831,48231,,1,,129.110207626189,35.1721664085103
4745,MA010120220806451671,글로리마트,,G2,소매,G204,종합 소매,G20404,슈퍼마켓,G47129,기타 음ㆍ식료품 위주 종합 소매업,26,부산광역시,26290,남구,26290550,대연5동,2629010600,대연동,2629010600112810018,1,대지,1281,18.0,부산광역시 남구 대연동 1281-18,262903131008,부산광역시 남구 못골로,49,,2629010600112810018004941,,부산광역시 남구 못골로 49,608818,48438,,,,129.087781547471,35.1359897798896
4789,MA010120220806446465,바다슈퍼,,G2,소매,G204,종합 소매,G20404,슈퍼마켓,G47129,기타 음ㆍ식료품 위주 종합 소매업,26,부산광역시,26440,강서구,26440580,가덕도동,2644012200,대항동,2644012200200130023,2,산,13,23.0,부산광역시 강서구 대항동 산13-23,264403136001,부산광역시 강서구 가덕해안로,1309,,2644012200200130023044149,,부산광역시 강서구 가덕해안로 1309,618450,46771,,,,128.825332773131,35.0067597383124
4815,MA010120220806474282,석운상사,,G2,소매,G205,식료품 소매,G20505,수산물 소매업,G47214,"신선, 냉동 및 기타 수산물 소매업",26,부산광역시,26140,서구,26140650,남부민1동,2614012300,남부민동,2614012300106890004,1,대지,689,4.0,부산광역시 서구 남부민동 689-4,261402126001,부산광역시 서구 충무대로,234,,2614012300106890004017134,,부산광역시 서구 충무대로 234,602801,49255,,4,,129.024799341694,35.0914866828594
4827,MA010120220806474717,해은상회,,G2,소매,G205,식료품 소매,G20504,건어물/젓갈 소매업,G47213,건어물 및 젓갈류 소매업,26,부산광역시,26230,부산진구,26230510,부전1동,2623010300,부전동,2623010300103250016,1,대지,325,16.0,부산광역시 부산진구 부전동 325-16,262304187399,부산광역시 부산진구 새싹로14번길,70,,2623010300103250016034189,,부산광역시 부산진구 새싹로14번길 70,614843,47251,,1,,129.060277937492,35.1617880392108
4858,MA010120220806477812,자갈치맘,,G2,소매,G205,식료품 소매,G20504,건어물/젓갈 소매업,G47213,건어물 및 젓갈류 소매업,26,부산광역시,26110,중구,26110580,남포동,2611013600,남포동1가,2611013600100770003,1,대지,77,3.0,부산광역시 중구 남포동1가 77-3,261103006003,부산광역시 중구 태종로,18,,2611013600100770002001761,,부산광역시 중구 태종로 18,600041,48984,,,,129.035642300289,35.0964243900772
4896,MA010120220806473717,기장굿푸드협동조합,,G2,소매,G205,식료품 소매,G20506,채소/과일 소매업,G47215,"채소, 과실 및 뿌리작물 소매업",26,부산광역시,26710,기장군,26710253,장안읍,2671025331,장안읍,2671025331105250000,1,대지,525,,부산광역시 기장군 장안읍 반룡리 525,267104220112,부산광역시 기장군 장안읍 방모산1길,61,,2671025331105250000000001,,부산광역시 기장군 장안읍 방모산1길 61,619952,46034,,,,129.255890930607,35.3374044969381
4927,MA010120220806469559,웰빙떡고을,,I2,음식,I210,기타 간이,I21002,떡/한과,C10711,떡류 제조업,26,부산광역시,26380,사하구,26380550,당리동,2638010200,당리동,2638010200101670000,1,대지,167,,부산광역시 사하구 당리동 167,263803134025,부산광역시 사하구 제석로,71,,2638010200101670000031727,,부산광역시 사하구 제석로 71,604828,49316,,,,128.975424675684,35.1070375937053
4936,MA010120220806466489,까페리토,,G2,소매,G204,종합 소매,G20404,슈퍼마켓,G47129,기타 음ㆍ식료품 위주 종합 소매업,26,부산광역시,26170,동구,26170510,초량1동,2617010100,초량동,2617010100112120011,1,대지,1212,11.0,부산광역시 동구 초량동 1212-11,261703125009,부산광역시 동구 대영로,261,,2617010100112120011008694,은성빌딩,부산광역시 동구 대영로 261,601839,48822,,,,129.039293257874,35.1118792357591
4940,MA010120220806468602,유관장,,G2,소매,G204,종합 소매,G20404,슈퍼마켓,G47221,음료 소매업,26,부산광역시,26170,동구,26170660,범일2동,2617010400,범일동,2617010400108300024,1,대지,830,24.0,부산광역시 동구 범일동 830-24,261703127033,부산광역시 동구 조방로,48,,2617010400108300024020038,,부산광역시 동구 조방로 48,601703,48739,,1,,129.061061577534,35.1409860421032
4978,MA010120220806464014,오양생선,,G2,소매,G205,식료품 소매,G20505,수산물 소매업,G47214,"신선, 냉동 및 기타 수산물 소매업",26,부산광역시,26530,사상구,26530610,덕포2동,2653010300,덕포동,2653010300100510000,1,대지,51,,부산광역시 사상구 덕포동 51,265303139007,부산광역시 사상구 덕상로,8,35.0,2653010300100510000000345,오양힐타운,부산광역시 사상구 덕상로 8-35,617811,46941,,,,128.989780936457,35.1721196069198
4981,MA010120220806464180,그린,,G2,소매,G205,식료품 소매,G20506,채소/과일 소매업,G47215,"채소, 과실 및 뿌리작물 소매업",26,부산광역시,26230,부산진구,26230660,부암3동,2623010800,부암동,2623010800103460005,1,대지,346,5.0,부산광역시 부산진구 부암동 346-5,262303129016,부산광역시 부산진구 백양순환로,162,,2623010800103460005035996,,부산광역시 부산진구 백양순환로 162,614839,47144,,,,129.041468282889,35.1663950683253
5001,MA010120220806497373,나원김치,,G2,소매,G205,식료품 소매,G20509,반찬/식료품 소매업,G47218,조리 반찬류 소매업,26,부산광역시,26410,금정구,26410530,서3동,2641011000,서동,2641011000101960068,1,대지,196,68.0,부산광역시 금정구 서동 196-68,264103135036,부산광역시 금정구 서부로,12,,2641011000101960068017392,,부산광역시 금정구 서부로 12,609848,46317,,,,129.104359463056,35.2153870751045
5006,MA010120220806495126,반찬이야기,,G2,소매,G205,식료품 소매,G20509,반찬/식료품 소매업,G47218,조리 반찬류 소매업,26,부산광역시,26710,기장군,26710250,기장읍,2671025022,기장읍,2671025022103370005,1,대지,337,5.0,부산광역시 기장군 기장읍 교리 337-5,267104220325,부산광역시 기장군 기장읍 차성로418번길,24,,2671025022103370005000001,보성빌,부산광역시 기장군 기장읍 차성로418번길 24,619901,46056,,1,,129.21568832505,35.2529798766254
5074,MA010120220806491254,정직한정육점,,G2,소매,G205,식료품 소매,G20503,정육점,G47212,육류 소매업,26,부산광역시,26410,금정구,26410680,구서1동,2641010700,구서동,2641010700100860024,1,대지,86,24.0,부산광역시 금정구 구서동 86-24,264104205041,부산광역시 금정구 금강로446번길,46,,2641010700100860024005770,,부산광역시 금정구 금강로446번길 46,609854,46243,,1,,129.090337917882,35.2485586986524
5083,MA010120220806492024,화광유통,,G2,소매,G205,식료품 소매,G20504,건어물/젓갈 소매업,G47213,건어물 및 젓갈류 소매업,26,부산광역시,26710,기장군,26710250,기장읍,2671025028,기장읍,2671025028104390002,1,대지,439,2.0,부산광역시 기장군 기장읍 대변리 439-2,267104220101,부산광역시 기장군 기장읍 무양2길,16,,2671025028104390002007833,길양수산,부산광역시 기장군 기장읍 무양2길 16,619904,46079,,,,129.227038478474,35.2259325994501
5120,MA010120220806484476,동진물산,,G2,소매,G205,식료품 소매,G20506,채소/과일 소매업,G47215,"채소, 과실 및 뿌리작물 소매업",26,부산광역시,26380,사하구,26380571,신평1동,2638010400,신평동,2638010400101000015,1,대지,100,15.0,부산광역시 사하구 신평동 100-15,263804202219,부산광역시 사하구 다대로83번길,50,,2638010400101000015000001,샹트패미리타운,부산광역시 사하구 다대로83번길 50,604833,49393,,7,,128.980594209983,35.0935558949812
5157,MA010120220806485417,심터,,G2,소매,G205,식료품 소매,G20509,반찬/식료품 소매업,G47218,조리 반찬류 소매업,26,부산광역시,26140,서구,26140640,충무동,2614012000,충무동1가,2614012000100370018,1,대지,37,18.0,부산광역시 서구 충무동1가 37-18,261404178348,부산광역시 서구 충무대로267번길,9,,2614012000100370018013741,,부산광역시 서구 충무대로267번길 9,602011,49253,,1,,129.023465665437,35.0944635701658
5164,MA010120220806478782,대신동마카롱,,G2,소매,G205,식료품 소매,G20509,반찬/식료품 소매업,G47216,"빵류, 과자류 및 당류 소매업",26,부산광역시,26140,서구,26140530,동대신3동,2614010300,동대신동3가,2614010300104710005,1,대지,471,5.0,부산광역시 서구 동대신동3가 471-5,261404178054,부산광역시 서구 구덕로322번길,23,,2614010300104710005022016,휴그린3차,부산광역시 서구 구덕로322번길 23,602813,49211,,1,,129.017675616888,35.1130541881062
5176,MA010120220806479783,동원축산,,G2,소매,G205,식료품 소매,G20503,정육점,G47212,육류 소매업,26,부산광역시,26260,동래구,26260510,수민동,2626010600,수안동,2626010600104320002,1,대지,432,2.0,부산광역시 동래구 수안동 432-2,262604190507,부산광역시 동래구 충렬대로249번길,19,,2626010600104320002001771,,부산광역시 동래구 충렬대로249번길 19,607824,47813,,,,129.08650051425,35.2022172249553
5177,MA010120220806478301,에디스구내매점,,G2,소매,G204,종합 소매,G20404,슈퍼마켓,G47129,기타 음ㆍ식료품 위주 종합 소매업,26,부산광역시,26380,사하구,26380550,당리동,2638010200,당리동,2638010200103360010,1,대지,336,10.0,부산광역시 사하구 당리동 336-10,263802006002,부산광역시 사하구 낙동대로,361,,2638010200103360010025002,,부산광역시 사하구 낙동대로 361,604830,49398,,,,128.977892520649,35.1015101110007
5180,MA010120220806480244,강경맛있는반찬,,G2,소매,G205,식료품 소매,G20509,반찬/식료품 소매업,G47218,조리 반찬류 소매업,26,부산광역시,26500,수영구,26500740,망미1동,2650010100,망미동,2650010100104320035,1,대지,432,35.0,부산광역시 수영구 망미동 432-35,265004214153,부산광역시 수영구 망미배산로10번길,56,,2650010100104320035001626,,부산광역시 수영구 망미배산로10번길 56,613822,48204,,1,,129.106818835061,35.1764609719721
5205,MA010120220806514431,8번주영이네,,G2,소매,G205,식료품 소매,G20505,수산물 소매업,G47214,"신선, 냉동 및 기타 수산물 소매업",26,부산광역시,26710,기장군,26710250,기장읍,2671025028,기장읍,2671025028102450023,1,대지,245,23.0,부산광역시 기장군 기장읍 대변리 245-23,267103140057,부산광역시 기장군 기장읍 기장해안로,668,,2671025028102450023000001,,부산광역시 기장군 기장읍 기장해안로 668,619904,46079,,,,129.23333783086,35.2204603940086
5264,MA010120220806504575,춘자네닭집,,G2,소매,G205,식료품 소매,G20503,정육점,G47212,육류 소매업,26,부산광역시,26380,사하구,26380530,괴정3동,2638010100,괴정동,2638010100104350030,1,대지,435,30.0,부산광역시 사하구 괴정동 435-30,263804202113,부산광역시 사하구 낙동대로199번길,13,,2638010100104350030036636,,부산광역시 사하구 낙동대로199번길 13,604810,49350,,1,,128.995468578348,35.1000960892809
5283,MA010120220806505934,세븐일레븐부산괴정,,G2,소매,G204,종합 소매,G20405,편의점,G47129,기타 음ㆍ식료품 위주 종합 소매업,26,부산광역시,26380,사하구,26380510,괴정1동,2638010100,괴정동,2638010100104990001,1,대지,499,1.0,부산광역시 사하구 괴정동 499-1,263804202305,부산광역시 사하구 사하로141번길,69,,2638010100104990001030190,,부산광역시 사하구 사하로141번길 69,604812,49389,,1,,128.989278098082,35.0951890166731
5287,MA010120220806505595,소문난고기,,G2,소매,G205,식료품 소매,G20503,정육점,G47212,육류 소매업,26,부산광역시,26350,해운대구,26350580,반여2동,2635010300,반여동,2635010300112911390,1,대지,1291,1390.0,부산광역시 해운대구 반여동 1291-1390,263504199281,부산광역시 해운대구 해운대로61번길,97,,2635010300112911390006283,,부산광역시 해운대구 해운대로61번길 97,612814,48029,,,,129.129131137057,35.1950398108091
5319,MA010120220806500199,다마트대림,,G2,소매,G204,종합 소매,G20404,슈퍼마켓,G47121,슈퍼마켓,26,부산광역시,26320,북구,26320541,화명1동,2632010200,화명동,2632010200111700001,1,대지,1170,1.0,부산광역시 북구 화명동 1170-1,263202132001,부산광역시 북구 금곡대로,268,,2632010200111700001000195,화명동대림타운,부산광역시 북구 금곡대로 268,616778,46536,,,,129.015152914764,35.2314284255489
5326,MA010120220806500862,영슈퍼,,G2,소매,G204,종합 소매,G20404,슈퍼마켓,G47129,기타 음ㆍ식료품 위주 종합 소매업,26,부산광역시,26350,해운대구,26350570,반여1동,2635010300,반여동,2635010300110380015,1,대지,1038,15.0,부산광역시 해운대구 반여동 1038-15,263503133009,부산광역시 해운대구 선수촌로,150,1.0,2635010300110380015006524,,부산광역시 해운대구 선수촌로 150-1,612811,48035,,1,,129.122174696097,35.2066060788512
5353,MA010120220806498836,유나유통,,G2,소매,G204,종합 소매,G20404,슈퍼마켓,G47216,"빵류, 과자류 및 당류 소매업",26,부산광역시,26410,금정구,26410530,서3동,2641011000,서동,2641011000101190038,1,대지,119,38.0,부산광역시 금정구 서동 119-38,264103135057,부산광역시 금정구 개좌로,21,1.0,2641011000101190038000413,,부산광역시 금정구 개좌로 21-1,609828,46321,,1,,129.108979076934,35.2158676467159
5372,MA010120220806494719,에이치아이헬스,,G2,소매,G205,식료품 소매,G20508,건강보조식품 소매업,G47217,건강 보조식품 소매업,26,부산광역시,26230,부산진구,26230520,부전2동,2623010300,부전동,2623010300102270002,1,대지,227,2.0,부산광역시 부산진구 부전동 227-2,262302000010,부산광역시 부산진구 중앙대로,672,,2623010300102270002013085,삼정타워,부산광역시 부산진구 중앙대로 672,614846,47296,,4,,129.059626430918,35.1530231927924
5419,MA010120220806494472,부산계란유통,,G2,소매,G205,식료품 소매,G20509,반찬/식료품 소매업,G47219,기타 식료품 소매업,26,부산광역시,26200,영도구,26200540,영선1동,2620010900,영선동2가,2620010900100180013,1,대지,18,13.0,부산광역시 영도구 영선동2가 18-13,262003128002,부산광역시 영도구 남항로,43,,2620010900100180006021453,,부산광역시 영도구 남항로 43,606042,49053,,,,129.041170118474,35.0886700477326
5445,MA010120220806524750,바른정육점,,G2,소매,G205,식료품 소매,G20503,정육점,G47212,육류 소매업,26,부산광역시,26320,북구,26320530,금곡동,2632010100,금곡동,2632010100100950006,1,대지,95,6.0,부산광역시 북구 금곡동 95-6,263204196068,부산광역시 북구 금곡대로616번길,41,,2632010100100950006001404,,부산광역시 북구 금곡대로616번길 41,616810,46505,,1,,129.016286234784,35.2623904507916
5449,MA010120220806524858,청년청과,,G2,소매,G205,식료품 소매,G20506,채소/과일 소매업,G47215,"채소, 과실 및 뿌리작물 소매업",26,부산광역시,26380,사하구,26380510,괴정1동,2638010100,괴정동,2638010100104930003,1,대지,493,3.0,부산광역시 사하구 괴정동 493-3,263803134015,부산광역시 사하구 사하로,139,1.0,2638010100104930003011366,,부산광역시 사하구 사하로 139-1,604812,49394,,,,128.992942451847,35.0943838530109
5472,MA010120220806520456,정가득찬반찬,,G2,소매,G205,식료품 소매,G20509,반찬/식료품 소매업,G47218,조리 반찬류 소매업,26,부산광역시,26530,사상구,26530661,주례3동,2653010600,주례동,2653010600105190065,1,대지,519,65.0,부산광역시 사상구 주례동 519-65,265304217350,부산광역시 사상구 주례로10번길,128,,2653010600105190065003933,,부산광역시 사상구 주례로10번길 128,617838,47013,,,,129.0044540595,35.149454883022
5509,MA010120220806522565,떡시루,,I2,음식,I210,기타 간이,I21002,떡/한과,C10711,떡류 제조업,26,부산광역시,26350,해운대구,26350525,우3동,2635010500,우동,2635010500114070000,1,대지,1407,,부산광역시 해운대구 우동 1407,263503133004,부산광역시 해운대구 마린시티2로,33,,2635010500114070000000001,해운대두산위브더제니스,부산광역시 해운대구 마린시티2로 33,612020,48119,,1,,129.144841326609,35.1572236013279
5513,MA010120220806516066,대덕솔트텍,,G2,소매,G205,식료품 소매,G20509,반찬/식료품 소매업,G47219,기타 식료품 소매업,26,부산광역시,26470,연제구,26470610,거제1동,2647010100,거제동,2647010100100720025,1,대지,72,25.0,부산광역시 연제구 거제동 72-25,264702000010,부산광역시 연제구 중앙대로,1217,,2647010100100720025000001,도시철도교대역,부산광역시 연제구 중앙대로 1217,611802,47513,,,,129.079835047772,35.1964448948995
5518,MA010120220806516799,부산맘,,G2,소매,G205,식료품 소매,G20508,건강보조식품 소매업,G47217,건강 보조식품 소매업,26,부산광역시,26380,사하구,26380561,하단1동,2638010300,하단동,2638010300106180004,1,대지,618,4.0,부산광역시 사하구 하단동 618-4,263802006002,부산광역시 사하구 낙동대로,451,,2638010300106180004000001,금동빌딩,부산광역시 사하구 낙동대로 451,604848,49408,,5,,128.969017146458,35.1050517962596
5535,MA010120220806518347,농축산365일할인마트,,G2,소매,G204,종합 소매,G20404,슈퍼마켓,G47121,슈퍼마켓,26,부산광역시,26530,사상구,26530610,덕포2동,2653010300,덕포동,2653010300104160030,1,대지,416,30.0,부산광역시 사상구 덕포동 416-30,265304217227,부산광역시 사상구 사상로310번길,13,,2653010300104160030015049,,부산광역시 사상구 사상로310번길 13,617815,46949,,,,128.984394281657,35.1724068787155
5542,MA010120220806522309,경북할인마트,,G2,소매,G204,종합 소매,G20404,슈퍼마켓,G47129,기타 음ㆍ식료품 위주 종합 소매업,26,부산광역시,26170,동구,26170650,범일1동,2617010400,범일동,2617010400114070006,1,대지,1407,6.0,부산광역시 동구 범일동 1407-6,261703127015,부산광역시 동구 성북로,46,4.0,2617010400114070006015877,,부산광역시 동구 성북로 46-4,601800,48761,,1,,129.049633406749,35.1380568804655
5546,MA010120220806512107,픽미픽미아이스하단,,G2,소매,G204,종합 소매,G20404,슈퍼마켓,G47129,기타 음ㆍ식료품 위주 종합 소매업,26,부산광역시,26380,사하구,26380562,하단2동,2638010300,하단동,2638010300104980012,1,대지,498,12.0,부산광역시 사하구 하단동 498-12,263802006002,부산광역시 사하구 낙동대로,523,,2638010300104980012010891,,부산광역시 사하구 낙동대로 523,604851,49308,,2,,128.965180501656,35.1108424009865
5550,MA010120220806511940,드림마트,,G2,소매,G204,종합 소매,G20404,슈퍼마켓,G47121,슈퍼마켓,26,부산광역시,26470,연제구,26470720,연산8동,2647010200,연산동,2647010200110260004,1,대지,1026,4.0,부산광역시 연제구 연산동 1026-4,264704211109,부산광역시 연제구 과정로287번길,51,,2647010200110260004009886,시원드림타워,부산광역시 연제구 과정로287번길 51,611815,47555,,2,,129.095802313274,35.1858814615288
5581,MA010120220806514502,정관수마트정육,,G2,소매,G205,식료품 소매,G20503,정육점,G47212,육류 소매업,26,부산광역시,26710,기장군,26710256,정관읍,2671025628,정관읍,2671025628107050000,1,대지,705,,부산광역시 기장군 정관읍 용수리 705,267103140060,부산광역시 기장군 정관읍 용수로,62,,2671025628107050000000001,,부산광역시 기장군 정관읍 용수로 62,619963,46004,,,,129.175493545382,35.3283341939434
5587,MA010120220806539443,하동재첩국,,G2,소매,G205,식료품 소매,G20509,반찬/식료품 소매업,G47219,기타 식료품 소매업,26,부산광역시,26410,금정구,26410670,남산동,2641010400,남산동,2641010400100930001,1,대지,93,1.0,부산광역시 금정구 남산동 93-1,264103130022,부산광역시 금정구 금강로,700,,2641010400100930001035010,남산시장빌딩,부산광역시 금정구 금강로 700,609811,46220,,1,,129.089315208375,35.26984936196
5598,MA010120220806539053,빙하시대,,G2,소매,G206,음료 소매,G20603,생수/음료 소매업,G47216,"빵류, 과자류 및 당류 소매업",26,부산광역시,26500,수영구,26500780,광안3동,2650010400,광안동,2650010400110750010,1,대지,1075,10.0,부산광역시 수영구 광안동 1075-10,265004214293,부산광역시 수영구 수영로665번길,28,,2650010400110750010003365,,부산광역시 수영구 수영로665번길 28,613812,48243,,1,,129.1134246323,35.1657640877398
5612,MA010120220806540791,아이스스토리,,G2,소매,G204,종합 소매,G20404,슈퍼마켓,G47216,"빵류, 과자류 및 당류 소매업",26,부산광역시,26350,해운대구,26350620,반송2동,2635010100,반송동,2635010100101950007,1,대지,195,7.0,부산광역시 해운대구 반송동 195-7,263503133027,부산광역시 해운대구 신반송로,186,,2635010100101950007000001,,부산광역시 해운대구 신반송로 186,612801,48011,,,,129.159830786693,35.2296148123599
5624,MA010120220806541798,다경이네건강식품코너,,G2,소매,G205,식료품 소매,G20508,건강보조식품 소매업,G47217,건강 보조식품 소매업,26,부산광역시,26170,동구,26170660,범일2동,2617010400,범일동,2617010400108300024,1,대지,830,24.0,부산광역시 동구 범일동 830-24,261703127033,부산광역시 동구 조방로,48,,2617010400108300024020038,,부산광역시 동구 조방로 48,601703,48739,,,,129.061061577534,35.1409860421032
5634,MA010120220806536434,부산떡방앗간,,I2,음식,I210,기타 간이,I21002,떡/한과,C10612,곡물 제분업,26,부산광역시,26290,남구,26290700,문현3동,2629010900,문현동,2629010900102020017,1,대지,202,17.0,부산광역시 남구 문현동 202-17,262903131012,부산광역시 남구 문현로,4,1.0,2629010900102020017014726,,부산광역시 남구 문현로 4-1,608822,48418,,1,,129.071724270771,35.139873633654
5648,MA010120220806537400,정육공간,,G2,소매,G205,식료품 소매,G20503,정육점,G47212,육류 소매업,26,부산광역시,26230,부산진구,26230540,연지동,2623010600,연지동,2623010600100700002,1,대지,70,2.0,부산광역시 부산진구 연지동 70-2,262303129029,부산광역시 부산진구 성지로,30,1.0,2623010600100700002006742,,부산광역시 부산진구 성지로 30-1,614859,47123,,1,,129.055105289158,35.1734701603008
5649,MA010120220806537415,하루미아이스크림,,G2,소매,G204,종합 소매,G20404,슈퍼마켓,G47216,"빵류, 과자류 및 당류 소매업",26,부산광역시,26380,사하구,26380562,하단2동,2638010300,하단동,2638010300111570010,1,대지,1157,10.0,부산광역시 사하구 하단동 1157-10,263803134034,부산광역시 사하구 하신번영로,407,,2638010300111570011025927,,부산광역시 사하구 하신번영로 407,604851,49301,,1,,128.960331945734,35.1173890724928
5692,MA010120220806533805,새미롯데프레시부산,,G2,소매,G204,종합 소매,G20404,슈퍼마켓,G47121,슈퍼마켓,26,부산광역시,26440,강서구,26440560,녹산동,2644011700,신호동,2644011700102150000,1,대지,215,,부산광역시 강서구 신호동 215,264403136057,부산광역시 강서구 신호산단2로,21,,2644011700102150000000001,,부산광역시 강서구 신호산단2로 21,618210,46759,,1,,128.877760777142,35.0870875052416
5697,MA010120220806534135,신농바이오팜,,G2,소매,G205,식료품 소매,G20508,건강보조식품 소매업,G47217,건강 보조식품 소매업,26,부산광역시,26260,동래구,26260761,명장1동,2626010100,명장동,2626010100100610001,1,대지,61,1.0,부산광역시 동래구 명장동 61-1,262604190162,부산광역시 동래구 명안로85번길,45,,2626010100100610001022899,,부산광역시 동래구 명안로85번길 45,607808,47772,,,,129.101915613234,35.2044125022214
5701,MA010120220806537041,더까까주까정관,,G2,소매,G204,종합 소매,G20405,편의점,G47216,"빵류, 과자류 및 당류 소매업",26,부산광역시,26710,기장군,26710256,정관읍,2671025622,정관읍,2671025622107140002,1,대지,714,2.0,부산광역시 기장군 정관읍 매학리 714-2,267103140046,부산광역시 기장군 정관읍 정관8로,8,5.0,2671025622107140002000001,,부산광역시 기장군 정관읍 정관8로 8-5,619963,46015,,1,,129.177132277611,35.323018277166
5708,MA010120220806531634,아시아마트,,G2,소매,G204,종합 소매,G20404,슈퍼마켓,G47129,기타 음ㆍ식료품 위주 종합 소매업,26,부산광역시,26530,사상구,26530580,삼락동,2653010100,삼락동,2653010100104120001,1,대지,412,1.0,부산광역시 사상구 삼락동 412-1,265303132010,부산광역시 사상구 삼락천로,52,,2653010100104120001031413,김보리멋짱머리방,부산광역시 사상구 삼락천로 52,617827,46913,,,,128.979441252836,35.1722397069739
5739,MA010120220806527984,지금정육점,,G2,소매,G205,식료품 소매,G20503,정육점,G47212,육류 소매업,26,부산광역시,26710,기장군,26710256,정관읍,2671025621,정관읍,2671025621104000001,1,대지,400,1.0,부산광역시 기장군 정관읍 방곡리 400-1,267103140019,부산광역시 기장군 정관읍 방곡3로,2,,2671025621104000001000001,,부산광역시 기장군 정관읍 방곡3로 2,619961,46019,,1,,129.189201827685,35.3248470912311
5787,MA010120220806559275,세원축산유통,,G2,소매,G205,식료품 소매,G20503,정육점,G47212,육류 소매업,26,부산광역시,26350,해운대구,26350660,재송2동,2635010400,재송동,2635010400111450031,1,대지,1145,31.0,부산광역시 해운대구 재송동 1145-31,263503133035,부산광역시 해운대구 재반로,146,43.0,2635010400111450031024764,,부산광역시 해운대구 재반로 146-43,612832,48053,,1,,129.128671433708,35.190383961157
5789,MA010120220806556949,경동상회,,G2,소매,G205,식료품 소매,G20504,건어물/젓갈 소매업,G47213,건어물 및 젓갈류 소매업,26,부산광역시,26230,부산진구,26230510,부전1동,2623010300,부전동,2623010300103470065,1,대지,347,65.0,부산광역시 부산진구 부전동 347-65,262304187694,부산광역시 부산진구 중앙대로769번길,39,,2623010300103470065019355,,부산광역시 부산진구 중앙대로769번길 39,614843,47252,,,,129.059719024875,35.1618560269265
5820,MA010120220806556584,미담떡방앗간,,I2,음식,I210,기타 간이,I21002,떡/한과,C10711,떡류 제조업,26,부산광역시,26260,동래구,26260761,명장1동,2626010100,명장동,2626010100101440011,1,대지,144,11.0,부산광역시 동래구 명장동 144-11,262604190163,부산광역시 동래구 명안로86번길,54,,2626010100101440011023577,,부산광역시 동래구 명안로86번길 54,607809,47775,,1,,129.107408981745,35.2037764874784
5826,MA010120220806554895,충북식품,,G2,소매,G205,식료품 소매,G20504,건어물/젓갈 소매업,G47213,건어물 및 젓갈류 소매업,26,부산광역시,26230,부산진구,26230510,부전1동,2623010300,부전동,2623010300103470070,1,대지,347,70.0,부산광역시 부산진구 부전동 347-70,262304187389,부산광역시 부산진구 부전로170번길,24,,2623010300103470070029795,,부산광역시 부산진구 부전로170번길 24,614843,47252,,,,129.060105493223,35.162032924037
5832,MA010120220806555600,1발전소매점,,G2,소매,G204,종합 소매,G20404,슈퍼마켓,G47129,기타 음ㆍ식료품 위주 종합 소매업,26,부산광역시,26710,기장군,26710253,장안읍,2671025323,장안읍,2671025323100640000,1,대지,64,,부산광역시 기장군 장안읍 고리 64,267104220034,부산광역시 기장군 장안읍 길천길,96,1.0,2671025334101300005014748,,부산광역시 기장군 장안읍 길천길 96-1,619950,46036,,,,129.294090409964,35.3206692692017
5837,MA010120220806552065,제이씨홈마트,,G2,소매,G204,종합 소매,G20404,슈퍼마켓,G47121,슈퍼마켓,26,부산광역시,26410,금정구,26410590,부곡3동,2641010900,부곡동,2641010900100250007,1,대지,25,7.0,부산광역시 금정구 부곡동 25-7,264103135021,부산광역시 금정구 무학송로,112,,2641010900100250007029903,,부산광역시 금정구 무학송로 112,609817,46253,,,,129.093854002917,35.2411897663233
5865,MA010120220806550770,아이스크림할인점안락SK점,,G2,소매,G204,종합 소매,G20404,슈퍼마켓,G47216,"빵류, 과자류 및 당류 소매업",26,부산광역시,26260,동래구,26260750,안락2동,2626010200,안락동,2626010200104720057,1,대지,472,57.0,부산광역시 동래구 안락동 472-57,262602006006,부산광역시 동래구 충렬대로,487,,2626010200104720057018417,안락SK아파트,부산광역시 동래구 충렬대로 487,607772,47798,,1,,129.111866523258,35.1948299939221
5890,MA010120220806543827,롯데쇼핑롯데슈퍼부산남산2점,,G2,소매,G204,종합 소매,G20404,슈퍼마켓,G47121,슈퍼마켓,26,부산광역시,26410,금정구,26410670,남산동,2641010400,남산동,2641010400100680001,1,대지,68,1.0,부산광역시 금정구 남산동 68-1,264102000010,부산광역시 금정구 중앙대로,1989,,2641010400100680001018821,효산테라스파크,부산광역시 금정구 중앙대로 1989,609814,46227,,1,,129.091333339269,35.2621604871374
5899,MA010120220806544272,에코포유,,G2,소매,G205,식료품 소매,G20508,건강보조식품 소매업,G47217,건강 보조식품 소매업,26,부산광역시,26290,남구,26290550,대연5동,2629010600,대연동,2629010600102810025,1,대지,281,25.0,부산광역시 남구 대연동 281-25,262904193431,부산광역시 남구 진남로36번길,80,,2629010600102810025028722,,부산광역시 남구 진남로36번길 80,608807,48435,,,,129.091457085071,35.1417166250557
5915,MA010120220806545296,더마트,,G2,소매,G204,종합 소매,G20404,슈퍼마켓,G47121,슈퍼마켓,26,부산광역시,26230,부산진구,26230720,가야2동,2623011000,가야동,2623011000106570062,1,대지,657,62.0,부산광역시 부산진구 가야동 657-62,262303006020,부산광역시 부산진구 엄광로,68,1.0,2623011000106570062007876,,부산광역시 부산진구 엄광로 68-1,614801,47389,,,,129.023705317954,35.147824486838
5919,MA010120220806546346,유진미트,,G2,소매,G205,식료품 소매,G20503,정육점,G47212,육류 소매업,26,부산광역시,26410,금정구,26410555,금사회동동,2641011100,금사동,2641011100100840001,1,대지,84,1.0,부산광역시 금정구 금사동 84-1,264103135010,부산광역시 금정구 금사로,68,,2641011100100840001021314,,부산광역시 금정구 금사로 68,609809,46330,,,,129.110733801504,35.218898219448
5947,MA010120220806571763,깜놀만두,,G2,소매,G205,식료품 소매,G20509,반찬/식료품 소매업,G47219,기타 식료품 소매업,26,부산광역시,26440,강서구,26440520,대저2동,2644010200,대저2동,2644010200120260001,1,대지,2026,1.0,부산광역시 강서구 대저2동 2026-1,264404208096,부산광역시 강서구 공항로811번길,57,,2644010200120260001033303,,부산광역시 강서구 공항로811번길 57,618807,46720,,,,128.954780875899,35.1803418634679
5959,MA010120220806577738,엠알건강,,G2,소매,G205,식료품 소매,G20508,건강보조식품 소매업,G47217,건강 보조식품 소매업,26,부산광역시,26380,사하구,26380530,괴정3동,2638010100,괴정동,2638010100112750000,1,대지,1275,,부산광역시 사하구 괴정동 1275,263802006002,부산광역시 사하구 낙동대로,203,,2638010100110160001000001,괴정엔스타,부산광역시 사하구 낙동대로 203,604083,49355,,2,,128.994514334062,35.1000949063862
5992,MA010120220806569146,멀티25시슈퍼,,G2,소매,G204,종합 소매,G20404,슈퍼마켓,G47129,기타 음ㆍ식료품 위주 종합 소매업,26,부산광역시,26530,사상구,26530591,모라1동,2653010200,모라동,2653010200107830001,1,대지,783,1.0,부산광역시 사상구 모라동 783-1,265303132023,부산광역시 사상구 사상로,469,,2653010200107830001003798,24시마트,부산광역시 사상구 사상로 469,617822,46921,,1,,128.986924996942,35.1865111614834
6017,MA010120220806571019,자연담은,,G2,소매,G205,식료품 소매,G20508,건강보조식품 소매업,G47217,건강 보조식품 소매업,26,부산광역시,26230,부산진구,26230610,전포2동,2623010200,전포동,2623010200101920009,1,대지,192,9.0,부산광역시 부산진구 전포동 192-9,262304187424,부산광역시 부산진구 서전로57번길,38,,2623010200101920009026586,,부산광역시 부산진구 서전로57번길 38,614865,47301,,,,129.06621957609,35.1595274841027
